$GPGGA,090015.00,5908.03281386,N,00937.83955571,E,5,10,1.2,-1.242,M,41.805,M,1.0,3961*68
$GPGGA,090016.00,5908.03281263,N,00937.83954838,E,5,10,1.1,-1.244,M,41.805,M,1.0,3961*65
$GPGGA,090017.00,5908.03281164,N,00937.83954673,E,5,10,1.1,-1.242,M,41.805,M,1.0,3961*67
$GPGGA,090018.00,5908.03281192,N,00937.83954708,E,5,10,1.1,-1.243,M,41.805,M,1.0,3961*6D
$GPGGA,090019.00,5908.03281109,N,00937.83954538,E,5,11,1.1,-1.245,M,41.805,M,1.0,3961*68
$GPGGA,090020.00,5908.03281193,N,00937.83953740,E,5,11,1.0,-1.246,M,41.805,M,1.0,3961*69
$GPGGA,090021.00,5908.03281224,N,00937.83954148,E,5,11,1.0,-1.245,M,41.805,M,1.0,3961*6D
$GPGGA,090022.00,5908.03281221,N,00937.83953539,E,5,11,1.0,-1.252,M,41.805,M,1.0,3961*68
$GPGGA,090023.00,5908.03281298,N,00937.83953009,E,5,11,1.0,-1.244,M,41.805,M,1.0,3961*6A
$GPGGA,090024.00,5908.03281271,N,00937.83952368,E,5,11,1.0,-1.245,M,41.805,M,1.0,3961*6E
$GPGGA,090025.00,5908.03281759,N,00937.83959065,E,5,11,1.0,-1.220,M,41.805,M,1.0,3961*66
$GPGGA,090026.00,5908.03281225,N,00937.83955711,E,5,11,1.0,-1.233,M,41.805,M,1.0,3961*61
$GPGGA,090027.00,5908.03280727,N,00937.83950778,E,5,10,1.1,-1.258,M,41.805,M,1.0,3961*61
$GPGGA,090028.00,5908.03280245,N,00937.83950067,E,5,10,1.1,-1.270,M,41.805,M,1.0,3961*6C
$GPGGA,090029.00,5908.03280371,N,00937.83951021,E,5,11,0.9,-1.269,M,41.805,M,1.0,3961*68
$GPGGA,090030.00,5908.03280013,N,00937.83950459,E,5,11,0.9,-1.284,M,41.805,M,1.0,3961*6E
$GPGGA,090031.00,5908.03281382,N,00937.83953296,E,5,10,1.1,-1.249,M,41.805,M,1.0,3961*6A
$GPGGA,090032.00,5908.03277452,N,00937.83952540,E,5,07,1.3,-1.297,M,41.805,M,1.0,3961*60
$GPGGA,090033.00,5908.03277697,N,00937.83960596,E,5,08,1.3,-1.458,M,41.805,M,1.0,3961*6A
$GPGGA,090034.00,5908.03275121,N,00937.83972641,E,5,08,1.3,-1.715,M,41.805,M,1.0,3961*65
$GPGGA,090035.00,5908.03266460,N,00937.83995885,E,5,07,1.3,-1.899,M,41.805,M,1.0,3961*6D
$GPGGA,090036.00,5908.03268484,N,00937.84004702,E,5,07,1.3,-1.720,M,41.805,M,1.0,3961*61
$GPGGA,090037.00,5908.03311063,N,00937.84018058,E,5,11,0.9,-2.661,M,41.805,M,1.0,3961*6C
$GPGGA,090038.00,5908.03329792,N,00937.84048005,E,5,11,0.9,-2.767,M,41.805,M,1.0,3961*6B
$GPGGA,090039.00,5908.03355777,N,00937.84164033,E,5,14,0.8,-2.751,M,41.805,M,1.0,3961*61
$GPGGA,090040.00,5908.03396348,N,00937.84286036,E,5,12,1.0,-2.617,M,41.805,M,1.0,3961*6E
$GPGGA,090041.00,5908.03438152,N,00937.84415342,E,5,11,1.2,-2.677,M,41.805,M,1.0,3961*6E
$GPGGA,090042.00,5908.03483079,N,00937.84554837,E,5,10,1.3,-2.565,M,41.805,M,1.0,3961*68
$GPGGA,090043.00,5908.03548132,N,00937.84668647,E,5,10,1.3,-2.567,M,41.805,M,1.0,3961*66
$GPGGA,090044.00,5908.03616500,N,00937.84758402,E,5,08,1.6,-2.367,M,41.805,M,1.0,3961*67
$GPGGA,090045.00,5908.03673011,N,00937.84856914,E,5,09,1.5,-2.029,M,41.805,M,1.0,3961*60
$GPGGA,090046.00,5908.03673682,N,00937.85019805,E,5,08,1.7,0.517,M,41.805,M,1.0,3961*48
$GPGGA,090310.00,5908.05299905,N,00937.85262160,E,5,09,1.0,-0.327,M,41.805,M,1.0,3961*64
$GPGGA,090311.00,5908.05304019,N,00937.85253237,E,5,16,0.8,-0.439,M,41.805,M,1.0,3961*68
$GPGGA,090312.00,5908.05303290,N,00937.85254345,E,5,18,0.9,-0.430,M,41.805,M,1.0,3961*6A
$GPGGA,090313.00,5908.05303564,N,00937.85256060,E,5,18,0.7,-0.404,M,41.805,M,1.0,3961*68
$GPGGA,090314.00,5908.05297453,N,00937.85245043,E,5,19,0.7,-0.400,M,41.805,M,1.0,3961*60
$GPGGA,090315.00,5908.05296810,N,00937.85245870,E,5,21,0.7,-0.379,M,41.805,M,1.0,3961*61
$GPGGA,090346.00,5908.05290340,N,00937.85259528,E,4,33,0.7,-0.415,M,41.805,M,1.0,3961*6D
$GPGGA,090347.00,5908.05290731,N,00937.85259086,E,4,33,0.7,-0.412,M,41.805,M,1.0,3961*68
$GPGGA,090348.00,5908.05290766,N,00937.85258937,E,4,33,0.7,-0.415,M,41.805,M,1.0,3961*60
$GPGGA,090349.00,5908.05290458,N,00937.85257492,E,4,32,0.7,-0.425,M,41.805,M,1.0,3961*60
$GPGGA,090350.00,5908.05290199,N,00937.85258765,E,4,30,0.6,-0.409,M,41.805,M,1.0,3961*69
$GPGGA,090351.00,5908.05290673,N,00937.85261051,E,4,29,0.6,-0.441,M,41.805,M,1.0,3961*65
$GPGGA,090352.00,5908.05290478,N,00937.85260844,E,4,28,0.7,-0.439,M,41.805,M,1.0,3961*6D
$GPGGA,090353.00,5908.05290287,N,00937.85260007,E,4,30,0.7,-0.413,M,41.805,M,1.0,3961*64
$GPGGA,090354.00,5908.05290121,N,00937.85260911,E,4,30,0.7,-0.409,M,41.805,M,1.0,3961*69
$GPGGA,090355.00,5908.05290880,N,00937.85258693,E,4,31,0.7,-0.417,M,41.805,M,1.0,3961*6A
$GPGGA,090356.00,5908.05291273,N,00937.85259796,E,4,31,0.7,-0.412,M,41.805,M,1.0,3961*6E
$GPGGA,090357.00,5908.05291870,N,00937.85259498,E,4,32,0.7,-0.413,M,41.805,M,1.0,3961*69
$GPGGA,090358.00,5908.05292041,N,00937.85258494,E,4,32,0.7,-0.414,M,41.805,M,1.0,3961*65
$GPGGA,090359.00,5908.05292391,N,00937.85257802,E,4,32,0.7,-0.410,M,41.805,M,1.0,3961*62
$GPGGA,090400.00,5908.05292067,N,00937.85257981,E,4,32,0.7,-0.416,M,41.805,M,1.0,3961*6F
$GPGGA,090401.00,5908.05292699,N,00937.85257227,E,4,32,0.6,-0.416,M,41.805,M,1.0,3961*6F
$GPGGA,090402.00,5908.05292493,N,00937.85257412,E,4,32,0.7,-0.415,M,41.805,M,1.0,3961*66
$GPGGA,090403.00,5908.05292608,N,00937.85257158,E,4,32,0.7,-0.420,M,41.805,M,1.0,3961*6A
$GPGGA,090404.00,5908.05291901,N,00937.85257399,E,4,32,0.7,-0.414,M,41.805,M,1.0,3961*60
$GPGGA,090405.00,5908.05291712,N,00937.85257442,E,4,32,0.7,-0.409,M,41.805,M,1.0,3961*60
$GPGGA,090406.00,5908.05291817,N,00937.85257653,E,4,30,0.7,-0.403,M,41.805,M,1.0,3961*63
$GPGGA,090407.00,5908.05291639,N,00937.85257036,E,4,30,0.7,-0.403,M,41.805,M,1.0,3961*65
$GPGGA,090408.00,5908.05292137,N,00937.85258309,E,4,31,0.6,-0.401,M,41.805,M,1.0,3961*62
$GPGGA,090409.00,5908.05291878,N,00937.85257737,E,4,29,0.6,-0.409,M,41.805,M,1.0,3961*65
$GPGGA,090410.00,5908.05290982,N,00937.85258064,E,4,30,0.6,-0.405,M,41.805,M,1.0,3961*62
$GPGGA,090411.00,5908.05290885,N,00937.85258680,E,4,31,0.6,-0.398,M,41.805,M,1.0,3961*6B
$GPGGA,090412.00,5908.05291100,N,00937.85258570,E,4,31,0.6,-0.403,M,41.805,M,1.0,3961*64
$GPGGA,090413.00,5908.05290815,N,00937.85258722,E,4,31,0.6,-0.404,M,41.805,M,1.0,3961*6B
$GPGGA,090414.00,5908.05291097,N,00937.85258866,E,4,31,0.6,-0.396,M,41.805,M,1.0,3961*6C
$GPGGA,090415.00,5908.05291570,N,00937.85259677,E,4,31,0.7,-0.403,M,41.805,M,1.0,3961*64
$GPGGA,090416.00,5908.05290881,N,00937.85259626,E,4,30,0.7,-0.406,M,41.805,M,1.0,3961*65
$GPGGA,090417.00,5908.05291455,N,00937.85259151,E,4,30,0.7,-0.396,M,41.805,M,1.0,3961*69
$GPGGA,090418.00,5908.05291426,N,00937.85259451,E,4,30,0.7,-0.399,M,41.805,M,1.0,3961*68
$GPGGA,090419.00,5908.05291562,N,00937.85259102,E,4,30,0.7,-0.396,M,41.805,M,1.0,3961*64
$GPGGA,090420.00,5908.05291453,N,00937.85258349,E,4,30,0.7,-0.405,M,41.805,M,1.0,3961*6C
$GPGGA,090421.00,5908.05292186,N,00937.85257009,E,4,27,0.7,-0.411,M,41.805,M,1.0,3961*68
$GPGGA,090422.00,5908.05292352,N,00937.85259109,E,4,27,0.7,-0.399,M,41.805,M,1.0,3961*68
$GPGGA,090423.00,5908.05292482,N,00937.85258040,E,4,27,0.7,-0.403,M,41.805,M,1.0,3961*6A
$GPGGA,090424.00,5908.05291763,N,00937.85258481,E,4,27,0.7,-0.408,M,41.805,M,1.0,3961*60
$GPGGA,090425.00,5908.05292464,N,00937.85257414,E,4,29,0.7,-0.405,M,41.805,M,1.0,3961*66
$GPGGA,090426.00,5908.05291983,N,00937.85257647,E,4,30,0.6,-0.406,M,41.805,M,1.0,3961*6C
$GPGGA,090427.00,5908.05292365,N,00937.85257233,E,4,31,0.6,-0.407,M,41.805,M,1.0,3961*6B
$GPGGA,090428.00,5908.05292240,N,00937.85257616,E,4,31,0.6,-0.398,M,41.805,M,1.0,3961*60
$GPGGA,090429.00,5908.05292110,N,00937.85257859,E,4,31,0.6,-0.404,M,41.805,M,1.0,3961*60
$GPGGA,090430.00,5908.05292316,N,00937.85257562,E,4,31,0.6,-0.402,M,41.805,M,1.0,3961*6F
$GPGGA,090431.00,5908.05292073,N,00937.85258033,E,4,30,0.6,-0.402,M,41.805,M,1.0,3961*61
$GPGGA,090432.00,5908.05292375,N,00937.85257170,E,4,30,0.6,-0.407,M,41.805,M,1.0,3961*6B
$GPGGA,090433.00,5908.05292168,N,00937.85257246,E,4,30,0.6,-0.412,M,41.805,M,1.0,3961*66
$GPGGA,090434.00,5908.05292600,N,00937.85257259,E,4,30,0.6,-0.401,M,41.805,M,1.0,3961*64
$GPGGA,090435.00,5908.05292225,N,00937.85257809,E,4,30,0.7,-0.407,M,41.805,M,1.0,3961*6E
$GPGGA,090436.00,5908.05292192,N,00937.85258166,E,4,30,0.7,-0.395,M,41.805,M,1.0,3961*61
$GPGGA,090437.00,5908.05292527,N,00937.85257947,E,4,27,0.7,-0.403,M,41.805,M,1.0,3961*60
$GPGGA,090438.00,5908.05292715,N,00937.85258080,E,4,28,0.7,-0.410,M,41.805,M,1.0,3961*6C
$GPGGA,090439.00,5908.05292924,N,00937.85257486,E,4,29,0.7,-0.407,M,41.805,M,1.0,3961*6B
$GPGGA,090440.00,5908.05292610,N,00937.85256871,E,4,29,0.7,-0.412,M,41.805,M,1.0,3961*6C
$GPGGA,090441.00,5908.05293006,N,00937.85256644,E,4,29,0.7,-0.408,M,41.805,M,1.0,3961*6E
$GPGGA,090442.00,5908.05292948,N,00937.85256570,E,4,29,0.7,-0.408,M,41.805,M,1.0,3961*6B
$GPGGA,090443.00,5908.05293013,N,00937.85256552,E,4,29,0.7,-0.410,M,41.805,M,1.0,3961*65
$GPGGA,090444.00,5908.05292989,N,00937.85257123,E,4,29,0.7,-0.409,M,41.805,M,1.0,3961*62
$GPGGA,090445.00,5908.05293294,N,00937.85256857,E,4,29,0.7,-0.406,M,41.805,M,1.0,3961*61
$GPGGA,090446.00,5908.05292875,N,00937.85257124,E,4,30,0.7,-0.404,M,41.805,M,1.0,3961*60
$GPGGA,090447.00,5908.05293185,N,00937.85256655,E,4,30,0.7,-0.402,M,41.805,M,1.0,3961*60
$GPGGA,090448.00,5908.05293058,N,00937.85256272,E,4,30,0.7,-0.407,M,41.805,M,1.0,3961*6A
$GPGGA,090449.00,5908.05293784,N,00937.85254461,E,4,30,0.7,-0.409,M,41.805,M,1.0,3961*65
$GPGGA,090450.00,5908.05294030,N,00937.85252383,E,4,30,0.7,-0.409,M,41.805,M,1.0,3961*6F
$GPGGA,090451.00,5908.05293785,N,00937.85252282,E,4,30,0.7,-0.411,M,41.805,M,1.0,3961*69
$GPGGA,090452.00,5908.05297219,N,00937.85245044,E,4,31,0.7,-0.402,M,41.805,M,1.0,3961*63
$GPGGA,090453.00,5908.05305061,N,00937.85230245,E,4,32,0.7,-0.409,M,41.805,M,1.0,3961*6C
$GPGGA,090454.00,5908.05310725,N,00937.85222592,E,4,32,0.7,-0.408,M,41.805,M,1.0,3961*67
$GPGGA,090455.00,5908.05314753,N,00937.85221810,E,4,32,0.7,-0.395,M,41.805,M,1.0,3961*64
$GPGGA,090456.00,5908.05316418,N,00937.85223893,E,4,31,0.7,-0.405,M,41.805,M,1.0,3961*6D
$GPGGA,090457.00,5908.05316095,N,00937.85220412,E,4,30,0.7,-0.407,M,41.805,M,1.0,3961*68
$GPGGA,090458.00,5908.05316559,N,00937.85217431,E,4,30,0.7,-0.392,M,41.805,M,1.0,3961*6C
$GPGGA,090459.00,5908.05315965,N,00937.85216328,E,4,30,0.7,-0.398,M,41.805,M,1.0,3961*69
$GPGGA,090500.00,5908.05315524,N,00937.85216380,E,4,30,0.7,-0.390,M,41.805,M,1.0,3961*67
$GPGGA,090501.00,5908.05311151,N,00937.85228765,E,4,32,0.7,-0.401,M,41.805,M,1.0,3961*6B
$GPGGA,090502.00,5908.05304432,N,00937.85243610,E,4,31,0.6,-0.390,M,41.805,M,1.0,3961*6F
$GPGGA,090503.00,5908.05298213,N,00937.85256705,E,4,30,0.7,-0.415,M,41.805,M,1.0,3961*64
$GPGGA,090504.00,5908.05290846,N,00937.85264247,E,4,27,0.8,-0.419,M,41.805,M,1.0,3961*66
$GPGGA,090505.00,5908.05284735,N,00937.85266054,E,4,27,0.8,-0.411,M,41.805,M,1.0,3961*63
$GPGGA,090506.00,5908.05282199,N,00937.85276282,E,4,27,0.8,-0.397,M,41.805,M,1.0,3961*67
$GPGGA,090507.00,5908.05279574,N,00937.85283738,E,4,27,0.8,-0.388,M,41.805,M,1.0,3961*65
$GPGGA,090508.00,5908.05276799,N,00937.85288485,E,4,28,0.8,-0.405,M,41.805,M,1.0,3961*67
$GPGGA,090509.00,5908.05274111,N,00937.85291738,E,4,31,0.7,-0.414,M,41.805,M,1.0,3961*68
$GPGGA,090510.00,5908.05272125,N,00937.85295745,E,4,31,0.7,-0.405,M,41.805,M,1.0,3961*6F
$GPGGA,090511.00,5908.05269402,N,00937.85297671,E,4,31,0.7,-0.415,M,41.805,M,1.0,3961*61
$GPGGA,090512.00,5908.05268428,N,00937.85299828,E,4,30,0.7,-0.415,M,41.805,M,1.0,3961*66
$GPGGA,090513.00,5908.05267960,N,00937.85300474,E,4,30,0.7,-0.408,M,41.805,M,1.0,3961*61
$GPGGA,090514.00,5908.05266167,N,00937.85301481,E,4,30,0.7,-0.417,M,41.805,M,1.0,3961*6D
$GPGGA,090515.00,5908.05265222,N,00937.85301232,E,4,30,0.7,-0.391,M,41.805,M,1.0,3961*6A
$GPGGA,090516.00,5908.05265390,N,00937.85300748,E,4,30,0.8,-0.379,M,41.805,M,1.0,3961*61
$GPGGA,090517.00,5908.05267318,N,00937.85300085,E,4,30,0.8,-0.396,M,41.805,M,1.0,3961*65
$GPGGA,090518.00,5908.05275725,N,00937.85289420,E,4,31,0.8,-0.394,M,41.805,M,1.0,3961*6B
$GPGGA,090519.00,5908.05285556,N,00937.85277446,E,4,31,0.8,-0.408,M,41.805,M,1.0,3961*60
$GPGGA,090520.00,5908.05291862,N,00937.85264586,E,4,30,0.8,-0.407,M,41.805,M,1.0,3961*64
$GPGGA,090521.00,5908.05297124,N,00937.85250647,E,4,30,0.8,-0.418,M,41.805,M,1.0,3961*6F
$GPGGA,090522.00,5908.05302599,N,00937.85237712,E,4,31,0.7,-0.415,M,41.805,M,1.0,3961*60
$GPGGA,090523.00,5908.05307840,N,00937.85228670,E,4,29,0.7,-0.403,M,41.805,M,1.0,3961*68
$GPGGA,090524.00,5908.05310805,N,00937.85218931,E,4,30,0.7,-0.420,M,41.805,M,1.0,3961*68
$GPGGA,090525.00,5908.05314030,N,00937.85214977,E,4,30,0.7,-0.405,M,41.805,M,1.0,3961*6A
$GPGGA,090526.00,5908.05314618,N,00937.85215599,E,4,30,0.7,-0.413,M,41.805,M,1.0,3961*6F
$GPGGA,090527.00,5908.05313823,N,00937.85216157,E,4,32,0.7,-0.414,M,41.805,M,1.0,3961*6F
$GPGGA,090528.00,5908.05312453,N,00937.85217766,E,4,31,0.7,-0.413,M,41.805,M,1.0,3961*6B
$GPGGA,090529.00,5908.05311977,N,00937.85219666,E,4,30,0.7,-0.412,M,41.805,M,1.0,3961*6D
$GPGGA,090530.00,5908.05311369,N,00937.85222048,E,4,31,0.7,-0.415,M,41.805,M,1.0,3961*64
$GPGGA,090531.00,5908.05310436,N,00937.85223132,E,4,30,0.7,-0.420,M,41.805,M,1.0,3961*63
$GPGGA,090532.00,5908.05309834,N,00937.85224825,E,4,31,0.7,-0.407,M,41.805,M,1.0,3961*6A
$GPGGA,090533.00,5908.05308723,N,00937.85225529,E,4,31,0.7,-0.412,M,41.805,M,1.0,3961*67
$GPGGA,090534.00,5908.05307728,N,00937.85225822,E,4,31,0.7,-0.430,M,41.805,M,1.0,3961*62
$GPGGA,090535.00,5908.05307121,N,00937.85227626,E,4,30,0.7,-0.421,M,41.805,M,1.0,3961*65
$GPGGA,090536.00,5908.05306223,N,00937.85227736,E,4,29,0.7,-0.425,M,41.805,M,1.0,3961*6A
$GPGGA,090537.00,5908.05305702,N,00937.85226747,E,4,30,0.7,-0.416,M,41.805,M,1.0,3961*61
$GPGGA,090538.00,5908.05305197,N,00937.85228888,E,4,30,0.7,-0.404,M,41.805,M,1.0,3961*65
$GPGGA,090539.00,5908.05304589,N,00937.85229955,E,4,30,0.7,-0.402,M,41.805,M,1.0,3961*68
$GPGGA,090540.00,5908.05303925,N,00937.85232574,E,4,30,0.7,-0.407,M,41.805,M,1.0,3961*6B
$GPGGA,090541.00,5908.05303316,N,00937.85233127,E,4,30,0.7,-0.411,M,41.805,M,1.0,3961*64
$GPGGA,090542.00,5908.05302624,N,00937.85234558,E,4,29,0.7,-0.399,M,41.805,M,1.0,3961*66
$GPGGA,090543.00,5908.05301820,N,00937.85235783,E,4,30,0.7,-0.408,M,41.805,M,1.0,3961*6C
$GPGGA,090544.00,5908.05301104,N,00937.85237476,E,4,29,0.7,-0.402,M,41.805,M,1.0,3961*6D
$GPGGA,090545.00,5908.05300273,N,00937.85238549,E,4,28,0.7,-0.404,M,41.805,M,1.0,3961*6B
$GPGGA,090546.00,5908.05299724,N,00937.85239800,E,4,28,0.7,-0.401,M,41.805,M,1.0,3961*6A
$GPGGA,090547.00,5908.05298759,N,00937.85240556,E,4,28,0.7,-0.409,M,41.805,M,1.0,3961*68
$GPGGA,090548.00,5908.05299330,N,00937.85240832,E,4,28,0.7,-0.404,M,41.805,M,1.0,3961*6F
$GPGGA,090549.00,5908.05299048,N,00937.85240220,E,4,28,0.7,-0.415,M,41.805,M,1.0,3961*6B
$GPGGA,090550.00,5908.05299171,N,00937.85240607,E,4,28,0.7,-0.419,M,41.805,M,1.0,3961*65
$GPGGA,090551.00,5908.05299201,N,00937.85240420,E,4,29,0.7,-0.412,M,41.805,M,1.0,3961*6D
$GPGGA,090552.00,5908.05299398,N,00937.85240183,E,4,29,0.7,-0.411,M,41.805,M,1.0,3961*60
$GPGGA,090553.00,5908.05299115,N,00937.85240170,E,4,29,0.7,-0.416,M,41.805,M,1.0,3961*6D
$GPGGA,090554.00,5908.05299391,N,00937.85239982,E,4,29,0.7,-0.424,M,41.805,M,1.0,3961*6E
$GPGGA,090555.00,5908.05299312,N,00937.85240464,E,4,29,0.7,-0.417,M,41.805,M,1.0,3961*6F
$GPGGA,090556.00,5908.05298903,N,00937.85240557,E,4,29,0.7,-0.421,M,41.805,M,1.0,3961*63
$GPGGA,090557.00,5908.05298995,N,00937.85240825,E,4,29,0.7,-0.412,M,41.805,M,1.0,3961*65
$GPGGA,090558.00,5908.05298777,N,00937.85240895,E,4,29,0.7,-0.418,M,41.805,M,1.0,3961*69
$GPGGA,090559.00,5908.05298721,N,00937.85241403,E,4,29,0.7,-0.420,M,41.805,M,1.0,3961*62
$GPGGA,090600.00,5908.05298422,N,00937.85241685,E,4,29,0.7,-0.415,M,41.805,M,1.0,3961*67
$GPGGA,090601.00,5908.05298147,N,00937.85241803,E,4,29,0.7,-0.415,M,41.805,M,1.0,3961*60
$GPGGA,090602.00,5908.05298321,N,00937.85241904,E,4,29,0.7,-0.412,M,41.805,M,1.0,3961*60
$GPGGA,090603.00,5908.05298409,N,00937.85242038,E,4,29,0.7,-0.419,M,41.805,M,1.0,3961*62
$GPGGA,090604.00,5908.05298255,N,00937.85241887,E,4,28,0.7,-0.418,M,41.805,M,1.0,3961*65
$GPGGA,090605.00,5908.05298239,N,00937.85242057,E,4,28,0.7,-0.420,M,41.805,M,1.0,3961*63
$GPGGA,090606.00,5908.05298200,N,00937.85241972,E,4,28,0.7,-0.417,M,41.805,M,1.0,3961*63
$GPGGA,090607.00,5908.05298438,N,00937.85241869,E,4,29,0.7,-0.410,M,41.805,M,1.0,3961*62
$GPGGA,090608.00,5908.05298552,N,00937.85241353,E,4,29,0.7,-0.416,M,41.805,M,1.0,3961*64
$GPGGA,090609.00,5908.05298229,N,00937.85241443,E,4,30,0.7,-0.419,M,41.805,M,1.0,3961*6F
$GPGGA,090610.00,5908.05298364,N,00937.85241393,E,4,30,0.7,-0.420,M,41.805,M,1.0,3961*6F
$GPGGA,090611.00,5908.05298341,N,00937.85241694,E,4,30,0.7,-0.420,M,41.805,M,1.0,3961*6B
$GPGGA,090612.00,5908.05298259,N,00937.85241501,E,4,29,0.7,-0.416,M,41.805,M,1.0,3961*62
$GPGGA,090613.00,5908.05298384,N,00937.85241910,E,4,29,0.7,-0.412,M,41.805,M,1.0,3961*6A
$GPGGA,090614.00,5908.05298261,N,00937.85241317,E,4,29,0.7,-0.413,M,41.805,M,1.0,3961*6B
$GPGGA,090615.00,5908.05298581,N,00937.85241184,E,4,29,0.7,-0.417,M,41.805,M,1.0,3961*6F
$GPGGA,090616.00,5908.05298997,N,00937.85240985,E,4,29,0.7,-0.417,M,41.805,M,1.0,3961*6F
$GPGGA,090617.00,5908.05298675,N,00937.85241039,E,4,29,0.7,-0.413,M,41.805,M,1.0,3961*66
$GPGGA,090618.00,5908.05298772,N,00937.85240469,E,4,29,0.7,-0.414,M,41.805,M,1.0,3961*68
$GPGGA,090619.00,5908.05298812,N,00937.85240783,E,4,29,0.7,-0.416,M,41.805,M,1.0,3961*65
$GPGGA,090620.00,5908.05298718,N,00937.85241615,E,4,29,0.7,-0.410,M,41.805,M,1.0,3961*63
$GPGGA,090621.00,5908.05298686,N,00937.85241720,E,4,29,0.7,-0.416,M,41.805,M,1.0,3961*65
$GPGGA,090622.00,5908.05298404,N,00937.85241867,E,4,29,0.7,-0.420,M,41.805,M,2.0,3961*64
$GPGGA,090623.00,5908.05298111,N,00937.85242082,E,4,29,0.7,-0.409,M,41.805,M,1.0,3961*6C
$GPGGA,090624.00,5908.05298149,N,00937.85240316,E,4,29,0.7,-0.465,M,41.805,M,1.0,3961*60
$GPGGA,090625.00,5908.05297881,N,00937.85241198,E,4,29,0.7,-0.451,M,41.805,M,1.0,3961*61
$GPGGA,090626.00,5908.05297423,N,00937.85241054,E,4,29,0.7,-0.434,M,41.805,M,1.0,3961*64
$GPGGA,090627.00,5908.05297617,N,00937.85243063,E,4,30,0.7,-0.401,M,41.805,M,1.0,3961*68
$GPGGA,090628.00,5908.05298606,N,00937.85242273,E,4,30,0.7,-0.422,M,41.805,M,1.0,3961*6B
$GPGGA,090629.00,5908.05298413,N,00937.85240673,E,4,29,0.7,-0.426,M,41.805,M,1.0,3961*66
$GPGGA,090630.00,5908.05298897,N,00937.85240341,E,4,29,0.7,-0.414,M,41.805,M,1.0,3961*6B
$GPGGA,090631.00,5908.05299228,N,00937.85239832,E,4,29,0.7,-0.414,M,41.805,M,1.0,3961*64
$GPGGA,090632.00,5908.05298741,N,00937.85240012,E,4,29,0.7,-0.398,M,41.805,M,1.0,3961*6B
$GPGGA,090633.00,5908.05299093,N,00937.85239473,E,4,29,0.7,-0.399,M,41.805,M,1.0,3961*6F
$GPGGA,090634.00,5908.05298954,N,00937.85239487,E,4,29,0.7,-0.396,M,41.805,M,1.0,3961*6F
$GPGGA,090635.00,5908.05299621,N,00937.85238959,E,4,30,0.7,-0.397,M,41.805,M,1.0,3961*64
$GPGGA,090636.00,5908.05298666,N,00937.85240493,E,4,29,0.7,-0.412,M,41.805,M,1.0,3961*63
$GPGGA,090637.00,5908.05299161,N,00937.85240196,E,4,29,0.7,-0.405,M,41.805,M,1.0,3961*65
$GPGGA,090638.00,5908.05299055,N,00937.85240739,E,4,29,0.7,-0.410,M,41.805,M,1.0,3961*6B
$GPGGA,090639.00,5908.05299352,N,00937.85239012,E,4,29,0.7,-0.396,M,41.805,M,1.0,3961*67
$GPGGA,090640.00,5908.05299657,N,00937.85238907,E,4,29,0.7,-0.422,M,41.805,M,1.0,3961*6D
$GPGGA,090641.00,5908.05300171,N,00937.85240772,E,4,30,0.7,-0.390,M,41.805,M,1.0,3961*6B
$GPGGA,090642.00,5908.05299940,N,00937.85239264,E,4,29,0.6,-0.399,M,41.805,M,1.0,3961*6F
$GPGGA,090643.00,5908.05299801,N,00937.85238759,E,4,29,0.6,-0.404,M,41.805,M,1.0,3961*63
$GPGGA,090644.00,5908.05300488,N,00937.85238378,E,4,29,0.6,-0.399,M,41.805,M,1.0,3961*6C
$GPGGA,090645.00,5908.05300668,N,00937.85238382,E,4,29,0.6,-0.399,M,41.805,M,1.0,3961*64
$GPGGA,090646.00,5908.05301146,N,00937.85237805,E,4,29,0.6,-0.395,M,41.805,M,1.0,3961*6A
$GPGGA,090647.00,5908.05301238,N,00937.85236762,E,4,29,0.7,-0.404,M,41.805,M,1.0,3961*60
$GPGGA,090648.00,5908.05301828,N,00937.85236469,E,4,29,0.7,-0.394,M,41.805,M,1.0,3961*62
$GPGGA,090649.00,5908.05302111,N,00937.85235616,E,4,29,0.7,-0.414,M,41.805,M,1.0,3961*65
$GPGGA,090650.00,5908.05302434,N,00937.85234988,E,4,29,0.7,-0.396,M,41.805,M,1.0,3961*6B
$GPGGA,090651.00,5908.05302775,N,00937.85234741,E,4,29,0.7,-0.409,M,41.805,M,1.0,3961*66
$GPGGA,090652.00,5908.05303311,N,00937.85234800,E,4,30,0.7,-0.396,M,41.805,M,1.0,3961*61
$GPGGA,090653.00,5908.05303900,N,00937.85233911,E,4,30,0.7,-0.400,M,41.805,M,1.0,3961*64
$GPGGA,090654.00,5908.05304140,N,00937.85233483,E,4,30,0.7,-0.401,M,41.805,M,1.0,3961*6F
$GPGGA,090655.00,5908.05304434,N,00937.85232930,E,4,30,0.7,-0.395,M,41.805,M,1.0,3961*66
$GPGGA,090656.00,5908.05304857,N,00937.85232682,E,4,30,0.7,-0.401,M,41.805,M,1.0,3961*60
$GPGGA,090657.00,5908.05304651,N,00937.85232319,E,4,29,0.7,-0.406,M,41.805,M,1.0,3961*61
$GPGGA,090658.00,5908.05304925,N,00937.85231474,E,4,29,0.7,-0.402,M,41.805,M,1.0,3961*69
$GPGGA,090659.00,5908.05304676,N,00937.85230396,E,4,29,0.7,-0.412,M,41.805,M,1.0,3961*6A
$GPGGA,090700.00,5908.05304854,N,00937.85230652,E,4,29,0.7,-0.414,M,41.805,M,1.0,3961*62
$GPGGA,090701.00,5908.05304759,N,00937.85231085,E,4,29,0.7,-0.410,M,41.805,M,1.0,3961*68
$GPGGA,090702.00,5908.05304825,N,00937.85230757,E,4,29,0.7,-0.409,M,41.805,M,1.0,3961*6E
$GPGGA,090703.00,5908.05304892,N,00937.85232615,E,4,28,0.7,-0.403,M,41.805,M,1.0,3961*6D
$GPGGA,090704.00,5908.05305152,N,00937.85232517,E,4,26,0.7,-0.425,M,41.805,M,1.0,3961*65
$GPGGA,090705.00,5908.05304588,N,00937.85233978,E,4,26,0.7,-0.418,M,41.805,M,1.0,3961*6C
$GPGGA,090706.00,5908.05304069,N,00937.85233767,E,4,26,0.7,-0.408,M,41.805,M,1.0,3961*64
$GPGGA,090707.00,5908.05303958,N,00937.85233903,E,4,26,0.7,-0.414,M,41.805,M,1.0,3961*68
$GPGGA,090708.00,5908.05303806,N,00937.85234044,E,4,26,0.7,-0.421,M,41.805,M,1.0,3961*66
$GPGGA,090709.00,5908.05303978,N,00937.85234618,E,4,26,0.7,-0.413,M,41.805,M,1.0,3961*61
$GPGGA,090710.00,5908.05303589,N,00937.85234030,E,4,28,0.7,-0.398,M,41.805,M,1.0,3961*6D
$GPGGA,090711.00,5908.05303981,N,00937.85234712,E,4,28,0.7,-0.402,M,41.805,M,1.0,3961*6B
$GPGGA,090712.00,5908.05303829,N,00937.85234848,E,4,28,0.7,-0.406,M,41.805,M,1.0,3961*6F
$GPGGA,090713.00,5908.05303847,N,00937.85234774,E,4,28,0.7,-0.407,M,41.805,M,1.0,3961*67
$GPGGA,090714.00,5908.05303347,N,00937.85235089,E,4,28,0.7,-0.406,M,41.805,M,1.0,3961*6E
$GPGGA,090715.00,5908.05303312,N,00937.85235849,E,4,28,0.7,-0.410,M,41.805,M,1.0,3961*6C
$GPGGA,090716.00,5908.05302943,N,00937.85236449,E,4,28,0.7,-0.411,M,41.805,M,1.0,3961*6E
$GPGGA,090717.00,5908.05302200,N,00937.85236906,E,4,28,0.7,-0.399,M,41.805,M,1.0,3961*62
$GPGGA,090718.00,5908.05301612,N,00937.85235367,E,4,27,0.7,-0.401,M,41.805,M,1.0,3961*6E
$GPGGA,090719.00,5908.05302156,N,00937.85236952,E,4,27,0.7,-0.391,M,41.805,M,1.0,3961*6A
$GPGGA,090720.00,5908.05303094,N,00937.85237431,E,4,28,0.7,-0.449,M,41.805,M,1.0,3961*6A
$GPGGA,090721.00,5908.05302958,N,00937.85238241,E,4,23,0.7,-0.465,M,41.805,M,1.0,3961*68
$GPGGA,090722.00,5908.05301655,N,00937.85236139,E,4,22,0.7,-0.462,M,41.805,M,1.0,3961*6E
$GPGGA,090723.00,5908.05300762,N,00937.85237822,E,4,22,0.7,-0.465,M,41.805,M,1.0,3961*6E
$GPGGA,090724.00,5908.05301461,N,00937.85237747,E,5,22,0.7,-0.404,M,41.805,M,1.0,3961*62
$GPGGA,090725.00,5908.05300521,N,00937.85241917,E,5,22,0.8,-0.378,M,41.805,M,1.0,3961*6E
$GPGGA,090726.00,5908.05299925,N,00937.85240779,E,5,23,0.8,-0.391,M,41.805,M,1.0,3961*65
$GPGGA,090727.00,5908.05300138,N,00937.85241384,E,5,24,0.8,-0.388,M,41.805,M,1.0,3961*69
$GPGGA,090728.00,5908.05300915,N,00937.85240541,E,5,26,0.7,-0.403,M,41.805,M,1.0,3961*66
$GPGGA,090729.00,5908.05301220,N,00937.85239878,E,5,27,0.7,-0.396,M,41.805,M,1.0,3961*68
$GPGGA,090730.00,5908.05302790,N,00937.85238101,E,5,29,0.7,-0.419,M,41.805,M,1.0,3961*65
$GPGGA,090731.00,5908.05302381,N,00937.85238687,E,5,27,0.7,-0.408,M,41.805,M,1.0,3961*67
$GPGGA,090732.00,5908.05300255,N,00937.85237276,E,5,27,0.7,-0.419,M,41.805,M,1.0,3961*6B
$GPGGA,090733.00,5908.05301833,N,00937.85235852,E,5,27,0.7,-0.390,M,41.805,M,1.0,3961*69
$GPGGA,090734.00,5908.05303251,N,00937.85234112,E,5,27,0.7,-0.389,M,41.805,M,1.0,3961*66
$GPGGA,090735.00,5908.05303905,N,00937.85231435,E,5,27,0.7,-0.399,M,41.805,M,1.0,3961*69
$GPGGA,090736.00,5908.05304983,N,00937.85229743,E,5,27,0.7,-0.384,M,41.805,M,1.0,3961*64
$GPGGA,090737.00,5908.05306544,N,00937.85227984,E,5,26,0.7,-0.388,M,41.805,M,1.0,3961*66
$GPGGA,090738.00,5908.05307654,N,00937.85226341,E,5,26,0.7,-0.383,M,41.805,M,1.0,3961*63
$GPGGA,090739.00,5908.05308447,N,00937.85222995,E,5,26,0.7,-0.393,M,41.805,M,1.0,3961*6B
$GPGGA,090740.00,5908.05309736,N,00937.85220382,E,5,25,0.7,-0.393,M,41.805,M,1.0,3961*6C
$GPGGA,090741.00,5908.05310434,N,00937.85219032,E,5,25,0.7,-0.394,M,41.805,M,1.0,3961*61
$GPGGA,090742.00,5908.05311459,N,00937.85216692,E,4,25,0.7,-0.396,M,41.805,M,1.0,3961*68
$GPGGA,090743.00,5908.05312325,N,00937.85214363,E,4,25,0.7,-0.396,M,41.805,M,1.0,3961*6F
$GPGGA,090744.00,5908.05313210,N,00937.85211398,E,4,25,0.7,-0.400,M,41.805,M,1.0,3961*67
$GPGGA,090745.00,5908.05314454,N,00937.85208673,E,4,25,0.7,-0.399,M,41.805,M,1.0,3961*68
$GPGGA,090746.00,5908.05315557,N,00937.85206540,E,4,26,0.7,-0.396,M,41.805,M,1.0,3961*69
$GPGGA,090747.00,5908.05316595,N,00937.85204876,E,4,26,0.7,-0.394,M,41.805,M,1.0,3961*6D
$GPGGA,090748.00,5908.05317090,N,00937.85201985,E,4,26,0.7,-0.397,M,41.805,M,1.0,3961*68
$GPGGA,090749.00,5908.05317876,N,00937.85202010,E,4,26,0.7,-0.393,M,41.805,M,1.0,3961*6B
$GPGGA,090750.00,5908.05317899,N,00937.85202517,E,4,26,0.7,-0.396,M,41.805,M,1.0,3961*65
$GPGGA,090751.00,5908.05316575,N,00937.85205590,E,4,27,0.7,-0.397,M,41.805,M,1.0,3961*62
$GPGGA,090752.00,5908.05314260,N,00937.85210912,E,4,29,0.7,-0.396,M,41.805,M,1.0,3961*6D
$GPGGA,090753.00,5908.05311399,N,00937.85216914,E,4,29,0.7,-0.396,M,41.805,M,1.0,3961*6E
$GPGGA,090754.00,5908.05308491,N,00937.85223917,E,4,29,0.7,-0.392,M,41.805,M,1.0,3961*6F
$GPGGA,090755.00,5908.05306191,N,00937.85227024,E,4,29,0.7,-0.432,M,41.805,M,1.0,3961*65
$GPGGA,090756.00,5908.05302939,N,00937.85235164,E,4,31,0.7,-0.410,M,41.805,M,1.0,3961*67
$GPGGA,090757.00,5908.05300666,N,00937.85240403,E,4,29,0.7,-0.382,M,41.805,M,1.0,3961*62
$GPGGA,090758.00,5908.05299677,N,00937.85241665,E,4,28,0.7,-0.411,M,41.805,M,1.0,3961*63
$GPGGA,090759.00,5908.05294706,N,00937.85250312,E,4,30,0.7,-0.397,M,41.805,M,1.0,3961*6D
$GPGGA,090800.00,5908.05293006,N,00937.85254842,E,4,30,0.7,-0.384,M,41.805,M,1.0,3961*66
$GPGGA,090801.00,5908.05290539,N,00937.85259529,E,4,29,0.7,-0.377,M,41.805,M,1.0,3961*64
$GPGGA,090802.00,5908.05288585,N,00937.85262555,E,4,29,0.7,-0.381,M,41.805,M,1.0,3961*63
$GPGGA,090803.00,5908.05286902,N,00937.85264584,E,4,28,0.7,-0.385,M,41.805,M,1.0,3961*60
$GPGGA,090804.00,5908.05285633,N,00937.85267703,E,4,29,0.7,-0.383,M,41.805,M,1.0,3961*60
$GPGGA,090805.00,5908.05284368,N,00937.85270944,E,4,29,0.7,-0.391,M,41.805,M,1.0,3961*63
$GPGGA,090806.00,5908.05283056,N,00937.85273509,E,4,29,0.7,-0.389,M,41.805,M,1.0,3961*66
$GPGGA,090807.00,5908.05281764,N,00937.85275794,E,4,29,0.7,-0.387,M,41.805,M,2.0,3961*6E
$GPGGA,090808.00,5908.05280848,N,00937.85277979,E,4,29,0.7,-0.392,M,41.805,M,1.0,3961*69
$GPGGA,090809.00,5908.05280378,N,00937.85279507,E,4,29,0.7,-0.387,M,41.805,M,1.0,3961*6F
$GPGGA,090810.00,5908.05279858,N,00937.85280954,E,4,29,0.7,-0.391,M,41.805,M,1.0,3961*63
$GPGGA,090811.00,5908.05279456,N,00937.85281446,E,4,29,0.7,-0.388,M,41.805,M,1.0,3961*67
$GPGGA,090812.00,5908.05279294,N,00937.85281961,E,4,29,0.7,-0.393,M,41.805,M,1.0,3961*6E
$GPGGA,090813.00,5908.05279182,N,00937.85281261,E,4,29,0.7,-0.399,M,41.805,M,1.0,3961*6A
$GPGGA,090814.00,5908.05279140,N,00937.85281251,E,4,29,0.7,-0.395,M,41.805,M,1.0,3961*6C
$GPGGA,090815.00,5908.05279627,N,00937.85281810,E,4,29,0.7,-0.392,M,41.805,M,1.0,3961*63
$GPGGA,090816.00,5908.05279470,N,00937.85281316,E,4,29,0.7,-0.397,M,41.805,M,1.0,3961*68
$GPGGA,090817.00,5908.05279841,N,00937.85279715,E,4,29,0.7,-0.392,M,41.805,M,1.0,3961*62
$GPGGA,090818.00,5908.05281024,N,00937.85277155,E,4,29,0.7,-0.401,M,41.805,M,1.0,3961*60
$GPGGA,090819.00,5908.05282214,N,00937.85274285,E,4,29,0.7,-0.398,M,41.805,M,1.0,3961*69
$GPGGA,090820.00,5908.05283561,N,00937.85272380,E,4,29,0.7,-0.396,M,41.805,M,1.0,3961*6B
$GPGGA,090821.00,5908.05284328,N,00937.85270413,E,4,29,0.7,-0.391,M,41.805,M,1.0,3961*6E
$GPGGA,090822.00,5908.05285353,N,00937.85267468,E,4,28,0.7,-0.393,M,41.805,M,1.0,3961*69
$GPGGA,090823.00,5908.05286760,N,00937.85267055,E,4,28,0.7,-0.390,M,41.805,M,1.0,3961*66
$GPGGA,090824.00,5908.05287942,N,00937.85264869,E,4,27,0.8,-0.396,M,41.805,M,1.0,3961*6C
$GPGGA,090825.00,5908.05288300,N,00937.85264562,E,4,28,0.8,-0.395,M,41.805,M,1.0,3961*64
$GPGGA,090826.00,5908.05289387,N,00937.85264621,E,4,29,0.8,-0.396,M,41.805,M,1.0,3961*6F
$GPGGA,090827.00,5908.05289210,N,00937.85263369,E,4,31,0.7,-0.396,M,41.805,M,1.0,3961*69
$GPGGA,090828.00,5908.05289625,N,00937.85262569,E,4,30,0.7,-0.400,M,41.805,M,1.0,3961*6A
$GPGGA,090829.00,5908.05289746,N,00937.85263584,E,4,30,0.7,-0.399,M,41.805,M,1.0,3961*6A
$GPGGA,090830.00,5908.05289191,N,00937.85262365,E,4,29,0.7,-0.393,M,41.805,M,1.0,3961*64
$GPGGA,090831.00,5908.05288673,N,00937.85261255,E,4,29,0.7,-0.398,M,41.805,M,1.0,3961*65
$GPGGA,090832.00,5908.05288854,N,00937.85261780,E,4,29,0.7,-0.387,M,41.805,M,1.0,3961*6E
$GPGGA,090833.00,5908.05289052,N,00937.85259432,E,4,28,0.7,-0.413,M,41.805,M,1.0,3961*6A
$GPGGA,090834.00,5908.05289129,N,00937.85259273,E,4,29,0.7,-0.381,M,41.805,M,1.0,3961*6E
$GPGGA,090835.00,5908.05290151,N,00937.85259637,E,4,28,0.7,-0.381,M,41.805,M,1.0,3961*6D
$GPGGA,090836.00,5908.05290416,N,00937.85259323,E,4,27,0.7,-0.391,M,41.805,M,1.0,3961*66
$GPGGA,090837.00,5908.05290973,N,00937.85258049,E,4,28,0.7,-0.395,M,41.805,M,1.0,3961*6C
$GPGGA,090838.00,5908.05291295,N,00937.85256766,E,4,28,0.7,-0.407,M,41.805,M,1.0,3961*69
$GPGGA,090839.00,5908.05290251,N,00937.85254911,E,4,28,0.7,-0.399,M,41.805,M,1.0,3961*6D
$GPGGA,090840.00,5908.05288843,N,00937.85253746,E,4,28,0.7,-0.385,M,41.805,M,1.0,3961*65
$GPGGA,090841.00,5908.05288881,N,00937.85251371,E,4,28,0.7,-0.409,M,41.805,M,1.0,3961*6B
$GPGGA,090842.00,5908.05287292,N,00937.85249552,E,4,27,0.7,-0.393,M,41.805,M,1.0,3961*6A
$GPGGA,090843.00,5908.05285996,N,00937.85247191,E,4,27,0.7,-0.385,M,41.805,M,1.0,3961*64
$GPGGA,090844.00,5908.05285557,N,00937.85247171,E,4,28,0.7,-0.387,M,41.805,M,1.0,3961*61
$GPGGA,090845.00,5908.05285801,N,00937.85248597,E,4,28,0.7,-0.390,M,41.805,M,1.0,3961*6B
$GPGGA,090846.00,5908.05285635,N,00937.85249001,E,4,29,0.7,-0.392,M,41.805,M,1.0,3961*69
$GPGGA,090847.00,5908.05285585,N,00937.85248731,E,4,29,0.7,-0.390,M,41.805,M,1.0,3961*67
$GPGGA,090848.00,5908.05285556,N,00937.85248743,E,4,30,0.7,-0.391,M,41.805,M,1.0,3961*6A
$GPGGA,090849.00,5908.05285678,N,00937.85248572,E,4,30,0.7,-0.388,M,41.805,M,1.0,3961*6C
$GPGGA,090850.00,5908.05285723,N,00937.85248556,E,4,30,0.7,-0.385,M,41.805,M,1.0,3961*60
$GPGGA,090851.00,5908.05285759,N,00937.85248792,E,4,30,0.7,-0.388,M,41.805,M,1.0,3961*6B
$GPGGA,090852.00,5908.05285724,N,00937.85248292,E,4,30,0.7,-0.389,M,41.805,M,1.0,3961*66
$GPGGA,090853.00,5908.05286076,N,00937.85247364,E,4,30,0.7,-0.397,M,41.805,M,1.0,3961*6C
$GPGGA,090854.00,5908.05286113,N,00937.85247590,E,4,30,0.7,-0.397,M,41.805,M,1.0,3961*64
$GPGGA,090855.00,5908.05285894,N,00937.85248113,E,4,30,0.7,-0.399,M,41.805,M,1.0,3961*6E
$GPGGA,090856.00,5908.05285592,N,00937.85248415,E,4,30,0.7,-0.401,M,41.805,M,1.0,3961*63
$GPGGA,090857.00,5908.05285607,N,00937.85248449,E,4,31,0.7,-0.401,M,41.805,M,1.0,3961*65
$GPGGA,090858.00,5908.05285358,N,00937.85248757,E,4,32,0.7,-0.398,M,41.805,M,1.0,3961*6D
$GPGGA,090859.00,5908.05285536,N,00937.85248942,E,4,32,0.7,-0.400,M,41.805,M,1.0,3961*6E
$GPGGA,090900.00,5908.05286130,N,00937.85247587,E,4,32,0.7,-0.408,M,41.805,M,1.0,3961*60
$GPGGA,090901.00,5908.05286315,N,00937.85247754,E,4,32,0.7,-0.407,M,41.805,M,1.0,3961*67
$GPGGA,090902.00,5908.05286124,N,00937.85247313,E,4,32,0.7,-0.405,M,41.805,M,1.0,3961*61
$GPGGA,090903.00,5908.05286168,N,00937.85247745,E,4,32,0.7,-0.403,M,41.805,M,1.0,3961*69
$GPGGA,090904.00,5908.05286072,N,00937.85247703,E,4,32,0.7,-0.408,M,41.805,M,1.0,3961*6D
$GPGGA,090905.00,5908.05286303,N,00937.85247674,E,4,32,0.7,-0.402,M,41.805,M,1.0,3961*62
$GPGGA,090906.00,5908.05286209,N,00937.85247458,E,4,32,0.7,-0.409,M,41.805,M,1.0,3961*6D
$GPGGA,090907.00,5908.05286218,N,00937.85247355,E,4,31,0.7,-0.408,M,41.805,M,1.0,3961*64
$GPGGA,090908.00,5908.05286240,N,00937.85247522,E,4,31,0.7,-0.403,M,41.805,M,1.0,3961*6B
$GPGGA,090909.00,5908.05286287,N,00937.85247748,E,4,31,0.7,-0.403,M,41.805,M,1.0,3961*6F
$GPGGA,090910.00,5908.05286041,N,00937.85247507,E,4,31,0.7,-0.399,M,41.805,M,1.0,3961*62
$GPGGA,090911.00,5908.05286276,N,00937.85247968,E,4,31,0.7,-0.403,M,41.805,M,1.0,3961*64
$GPGGA,090912.00,5908.05286112,N,00937.85247705,E,4,31,0.7,-0.405,M,41.805,M,1.0,3961*65
$GPGGA,090913.00,5908.05286018,N,00937.85247693,E,4,30,0.7,-0.400,M,41.805,M,1.0,3961*65
$GPGGA,090914.00,5908.05286036,N,00937.85247639,E,4,31,0.7,-0.404,M,41.805,M,1.0,3961*6B
$GPGGA,090915.00,5908.05286079,N,00937.85247998,E,4,31,0.7,-0.403,M,41.805,M,1.0,3961*62
$GPGGA,090916.00,5908.05286010,N,00937.85247399,E,4,31,0.7,-0.405,M,41.805,M,1.0,3961*63
$GPGGA,090917.00,5908.05286254,N,00937.85247149,E,4,31,0.7,-0.400,M,41.805,M,1.0,3961*6A
$GPGGA,090918.00,5908.05286198,N,00937.85247970,E,4,31,0.7,-0.402,M,41.805,M,1.0,3961*66
$GPGGA,090919.00,5908.05285996,N,00937.85247808,E,4,32,0.7,-0.403,M,41.805,M,1.0,3961*6E
$GPGGA,090920.00,5908.05286314,N,00937.85247676,E,4,32,0.7,-0.402,M,41.805,M,1.0,3961*61
$GPGGA,090921.00,5908.05286553,N,00937.85247093,E,4,32,0.7,-0.403,M,41.805,M,1.0,3961*69
$GPGGA,090922.00,5908.05286576,N,00937.85246869,E,4,32,0.7,-0.404,M,41.805,M,1.0,3961*66
$GPGGA,090923.00,5908.05286453,N,00937.85246734,E,4,32,0.7,-0.408,M,41.805,M,1.0,3961*6A
$GPGGA,090924.00,5908.05286941,N,00937.85246694,E,4,30,0.7,-0.407,M,41.805,M,1.0,3961*65
$GPGGA,090925.00,5908.05285452,N,00937.85249127,E,4,28,0.7,-0.394,M,41.805,M,1.0,3961*6C
$GPGGA,090926.00,5908.05284937,N,00937.85249351,E,4,26,0.7,-0.395,M,41.805,M,1.0,3961*6C
$GPGGA,090927.00,5908.05284983,N,00937.85248866,E,4,26,0.7,-0.393,M,41.805,M,1.0,3961*6A
$GPGGA,090928.00,5908.05284995,N,00937.85250051,E,4,24,0.7,-0.372,M,41.805,M,1.0,3961*6A
$GPGGA,090929.00,5908.05284666,N,00937.85249149,E,4,27,0.7,-0.405,M,41.805,M,1.0,3961*6C
$GPGGA,090930.00,5908.05284745,N,00937.85249231,E,4,27,0.7,-0.379,M,41.805,M,1.0,3961*64
$GPGGA,090931.00,5908.05285293,N,00937.85249455,E,4,26,0.7,-0.399,M,41.805,M,1.0,3961*61
$GPGGA,090932.00,5908.05285697,N,00937.85248893,E,4,27,0.6,-0.395,M,41.805,M,1.0,3961*69
$GPGGA,090933.00,5908.05285375,N,00937.85249098,E,4,29,0.7,-0.390,M,41.805,M,1.0,3961*69
$GPGGA,090934.00,5908.05285052,N,00937.85249018,E,4,29,0.7,-0.394,M,41.805,M,1.0,3961*64
$GPGGA,090935.00,5908.05285280,N,00937.85249109,E,4,29,0.7,-0.391,M,41.805,M,1.0,3961*6C
$GPGGA,090936.00,5908.05285186,N,00937.85249061,E,4,28,0.7,-0.387,M,41.805,M,1.0,3961*63
$GPGGA,090937.00,5908.05285545,N,00937.85248775,E,4,28,0.7,-0.386,M,41.805,M,1.0,3961*6B
$GPGGA,090938.00,5908.05285238,N,00937.85249093,E,4,28,0.7,-0.394,M,41.805,M,1.0,3961*64
$GPGGA,090939.00,5908.05285407,N,00937.85249251,E,4,28,0.8,-0.389,M,41.805,M,1.0,3961*60
$GPGGA,090940.00,5908.05285131,N,00937.85249554,E,4,28,0.8,-0.398,M,41.805,M,1.0,3961*6C
$GPGGA,090941.00,5908.05285185,N,00937.85249992,E,4,28,0.8,-0.390,M,41.805,M,1.0,3961*6C
$GPGGA,090942.00,5908.05284639,N,00937.85249621,E,4,28,0.9,-0.382,M,41.805,M,1.0,3961*6B
$GPGGA,090943.00,5908.05285548,N,00937.85248089,E,4,28,0.9,-0.388,M,41.805,M,1.0,3961*61
$GPGGA,090944.00,5908.05285523,N,00937.85248236,E,4,28,0.9,-0.384,M,41.805,M,1.0,3961*61
$GPGGA,090945.00,5908.05285859,N,00937.85248306,E,4,29,0.8,-0.381,M,41.805,M,1.0,3961*67
$GPGGA,090946.00,5908.05285626,N,00937.85247796,E,4,29,0.8,-0.390,M,41.805,M,1.0,3961*60
$GPGGA,090947.00,5908.05285835,N,00937.85247912,E,4,30,0.7,-0.384,M,41.805,M,1.0,3961*6D
$GPGGA,090948.00,5908.05285961,N,00937.85247592,E,4,29,0.7,-0.382,M,41.805,M,1.0,3961*68
$GPGGA,090949.00,5908.05285758,N,00937.85247344,E,4,30,0.7,-0.387,M,41.805,M,1.0,3961*6D
$GPGGA,090950.00,5908.05285885,N,00937.85247616,E,4,30,0.7,-0.382,M,41.805,M,1.0,3961*6D
$GPGGA,090951.00,5908.05285886,N,00937.85247733,E,4,29,0.7,-0.387,M,41.805,M,1.0,3961*64
$GPGGA,090952.00,5908.05285718,N,00937.85247833,E,4,29,0.7,-0.382,M,41.805,M,1.0,3961*65
$GPGGA,090953.00,5908.05285600,N,00937.85247705,E,4,29,0.7,-0.387,M,41.805,M,1.0,3961*63
$GPGGA,090954.00,5908.05285575,N,00937.85247773,E,4,28,0.7,-0.390,M,41.805,M,1.0,3961*63
$GPGGA,090955.00,5908.05285936,N,00937.85247855,E,4,29,0.7,-0.384,M,41.805,M,1.0,3961*66
$GPGGA,090956.00,5908.05285773,N,00937.85247501,E,4,28,0.7,-0.384,M,41.805,M,1.0,3961*67
$GPGGA,090957.00,5908.05286203,N,00937.85247264,E,4,28,0.7,-0.394,M,41.805,M,1.0,3961*62
$GPGGA,090958.00,5908.05286108,N,00937.85247109,E,4,28,0.8,-0.386,M,41.805,M,1.0,3961*61
$GPGGA,090959.00,5908.05285636,N,00937.85247938,E,4,29,0.8,-0.383,M,41.805,M,1.0,3961*67
$GPGGA,091000.00,5908.05285558,N,00937.85248151,E,4,28,0.8,-0.382,M,41.805,M,1.0,3961*60
$GPGGA,091001.00,5908.05285593,N,00937.85248176,E,4,29,0.8,-0.391,M,41.805,M,1.0,3961*60
$GPGGA,091002.00,5908.05285509,N,00937.85247985,E,4,28,0.8,-0.386,M,41.805,M,1.0,3961*6C
$GPGGA,091003.00,5908.05285789,N,00937.85247778,E,4,28,0.8,-0.391,M,41.805,M,1.0,3961*6D
$GPGGA,091004.00,5908.05285854,N,00937.85247376,E,4,28,0.8,-0.383,M,41.805,M,1.0,3961*6C
$GPGGA,091005.00,5908.05285832,N,00937.85247427,E,4,29,0.7,-0.386,M,41.805,M,1.0,3961*65
$GPGGA,091006.00,5908.05285066,N,00937.85248395,E,4,29,0.7,-0.383,M,41.805,M,1.0,3961*6B
$GPGGA,091007.00,5908.05284855,N,00937.85248818,E,4,29,0.7,-0.377,M,41.805,M,1.0,3961*66
$GPGGA,091008.00,5908.05285604,N,00937.85247887,E,4,29,0.7,-0.387,M,41.805,M,1.0,3961*64
$GPGGA,091009.00,5908.05285847,N,00937.85248054,E,4,28,0.7,-0.394,M,41.805,M,1.0,3961*66
$GPGGA,091010.00,5908.05285715,N,00937.85249529,E,4,28,0.8,-0.420,M,41.805,M,1.0,3961*6F
$GPGGA,091011.00,5908.05284697,N,00937.85251340,E,4,28,0.8,-0.390,M,41.805,M,1.0,3961*68
$GPGGA,091012.00,5908.05284027,N,00937.85252637,E,4,27,0.8,-0.383,M,41.805,M,1.0,3961*6D
$GPGGA,091013.00,5908.05284246,N,00937.85252604,E,4,28,0.8,-0.384,M,41.805,M,1.0,3961*61
$GPGGA,091014.00,5908.05283609,N,00937.85254214,E,4,28,0.7,-0.390,M,41.805,M,1.0,3961*67
$GPGGA,091015.00,5908.05283330,N,00937.85254089,E,4,29,0.7,-0.394,M,41.805,M,1.0,3961*6A
$GPGGA,091016.00,5908.05282892,N,00937.85253830,E,4,29,0.7,-0.384,M,41.805,M,1.0,3961*67
$GPGGA,091017.00,5908.05282891,N,00937.85254703,E,4,29,0.7,-0.386,M,41.805,M,1.0,3961*6F
$GPGGA,091018.00,5908.05282419,N,00937.85254703,E,4,28,0.7,-0.385,M,41.805,M,1.0,3961*6E
$GPGGA,091019.00,5908.05282264,N,00937.85254583,E,4,28,0.7,-0.393,M,41.805,M,1.0,3961*6E
$GPGGA,091020.00,5908.05282123,N,00937.85254361,E,4,28,0.7,-0.394,M,41.805,M,1.0,3961*69
$GPGGA,091021.00,5908.05281496,N,00937.85256550,E,4,28,0.7,-0.388,M,41.805,M,1.0,3961*6B
$GPGGA,091022.00,5908.05281458,N,00937.85256889,E,4,28,0.7,-0.380,M,41.805,M,1.0,3961*6B
$GPGGA,091023.00,5908.05281159,N,00937.85258658,E,4,27,0.8,-0.382,M,41.805,M,1.0,3961*60
$GPGGA,091024.00,5908.05280870,N,00937.85258619,E,4,27,0.8,-0.388,M,41.805,M,1.0,3961*6B
$GPGGA,091025.00,5908.05280807,N,00937.85258916,E,4,27,0.8,-0.387,M,41.805,M,1.0,3961*65
$GPGGA,091026.00,5908.05281013,N,00937.85258872,E,4,28,0.8,-0.382,M,41.805,M,1.0,3961*63
$GPGGA,091027.00,5908.05281150,N,00937.85259022,E,4,28,0.8,-0.383,M,41.805,M,1.0,3961*69
$GPGGA,091028.00,5908.05281387,N,00937.85258086,E,4,29,0.7,-0.382,M,41.805,M,1.0,3961*6E
$GPGGA,091029.00,5908.05281877,N,00937.85257622,E,4,29,0.7,-0.367,M,41.805,M,1.0,3961*67
$GPGGA,091030.00,5908.05282278,N,00937.85257959,E,4,29,0.7,-0.354,M,41.805,M,1.0,3961*6A
$GPGGA,091031.00,5908.05282162,N,00937.85257706,E,4,29,0.7,-0.359,M,41.805,M,1.0,3961*6A
$GPGGA,091032.00,5908.05282529,N,00937.85257372,E,4,29,0.7,-0.355,M,41.805,M,1.0,3961*69
$GPGGA,091033.00,5908.05282702,N,00937.85257216,E,4,30,0.6,-0.353,M,41.805,M,1.0,3961*6F
$GPGGA,091034.00,5908.05282529,N,00937.85257770,E,4,30,0.6,-0.362,M,41.805,M,1.0,3961*64
$GPGGA,091035.00,5908.05282095,N,00937.85257986,E,4,30,0.6,-0.364,M,41.805,M,1.0,3961*66
$GPGGA,091036.00,5908.05281965,N,00937.85258014,E,4,30,0.6,-0.363,M,41.805,M,1.0,3961*6A
$GPGGA,091037.00,5908.05282138,N,00937.85257836,E,4,30,0.6,-0.368,M,41.805,M,1.0,3961*64
$GPGGA,091038.00,5908.05282068,N,00937.85257728,E,4,30,0.6,-0.369,M,41.805,M,1.0,3961*6E
$GPGGA,091039.00,5908.05281850,N,00937.85258260,E,4,30,0.6,-0.372,M,41.805,M,1.0,3961*63
$GPGGA,091040.00,5908.05282525,N,00937.85257113,E,4,30,0.6,-0.359,M,41.805,M,1.0,3961*60
$GPGGA,091041.00,5908.05282089,N,00937.85257702,E,4,29,0.6,-0.374,M,41.805,M,1.0,3961*63
$GPGGA,091042.00,5908.05281182,N,00937.85257706,E,4,28,0.7,-0.397,M,41.805,M,1.0,3961*60
$GPGGA,091043.00,5908.05284022,N,00937.85251728,E,4,29,0.7,-0.395,M,41.805,M,1.0,3961*66
$GPGGA,091044.00,5908.05289979,N,00937.85239796,E,4,28,0.7,-0.393,M,41.805,M,1.0,3961*67
$GPGGA,091045.00,5908.05294708,N,00937.85227901,E,4,28,0.7,-0.404,M,41.805,M,1.0,3961*64
$GPGGA,091046.00,5908.05298120,N,00937.85213398,E,4,28,0.7,-0.388,M,41.805,M,1.0,3961*69
$GPGGA,091047.00,5908.05295459,N,00937.85209827,E,4,28,0.7,-0.371,M,41.805,M,1.0,3961*6C
$GPGGA,091048.00,5908.05293155,N,00937.85214779,E,4,28,0.7,-0.367,M,41.805,M,1.0,3961*63
$GPGGA,091049.00,5908.05290211,N,00937.85216720,E,4,27,0.7,-0.411,M,41.805,M,1.0,3961*65
$GPGGA,091050.00,5908.05289027,N,00937.85218369,E,4,29,0.7,-0.430,M,41.805,M,1.0,3961*68
$GPGGA,091051.00,5908.05292166,N,00937.85215952,E,4,28,0.7,-0.448,M,41.805,M,1.0,3961*66
$GPGGA,091052.00,5908.05292657,N,00937.85217911,E,4,28,0.8,-0.466,M,41.805,M,1.0,3961*66
$GPGGA,091053.00,5908.05291361,N,00937.85217067,E,4,29,0.8,-0.433,M,41.805,M,1.0,3961*6D
$GPGGA,091054.00,5908.05289302,N,00937.85220202,E,4,29,0.8,-0.430,M,41.805,M,1.0,3961*60
$GPGGA,091055.00,5908.05288267,N,00937.85219724,E,4,28,0.8,-0.463,M,41.805,M,1.0,3961*6E
$GPGGA,091056.00,5908.05291010,N,00937.85219281,E,4,28,0.8,-0.429,M,41.805,M,1.0,3961*63
$GPGGA,091057.00,5908.05290328,N,00937.85219315,E,4,28,0.8,-0.441,M,41.805,M,1.0,3961*69
$GPGGA,091058.00,5908.05289375,N,00937.85220525,E,4,28,0.8,-0.439,M,41.805,M,1.0,3961*66
$GPGGA,091059.00,5908.05288887,N,00937.85221446,E,4,28,0.8,-0.445,M,41.805,M,1.0,3961*6E
$GPGGA,091100.00,5908.05288754,N,00937.85221797,E,4,28,0.8,-0.438,M,41.805,M,1.0,3961*67
$GPGGA,091101.00,5908.05290462,N,00937.85222014,E,4,29,0.8,-0.435,M,41.805,M,1.0,3961*6A
$GPGGA,091102.00,5908.05289874,N,00937.85221677,E,4,29,0.8,-0.445,M,41.805,M,1.0,3961*6D
$GPGGA,091103.00,5908.05289517,N,00937.85222120,E,4,29,0.8,-0.436,M,41.805,M,1.0,3961*66
$GPGGA,091104.00,5908.05290346,N,00937.85222455,E,4,29,0.8,-0.432,M,41.805,M,1.0,3961*68
$GPGGA,091105.00,5908.05291056,N,00937.85221682,E,4,30,0.8,-0.429,M,41.805,M,1.0,3961*63
$GPGGA,091106.00,5908.05291498,N,00937.85221655,E,4,30,0.8,-0.418,M,41.805,M,1.0,3961*6E
$GPGGA,091107.00,5908.05291148,N,00937.85220900,E,4,29,0.8,-0.434,M,41.805,M,1.0,3961*6F
$GPGGA,091108.00,5908.05290701,N,00937.85220057,E,4,29,0.7,-0.433,M,41.805,M,1.0,3961*69
$GPGGA,091109.00,5908.05290929,N,00937.85221150,E,4,29,0.8,-0.429,M,41.805,M,1.0,3961*6F
$GPGGA,091110.00,5908.05291364,N,00937.85222528,E,4,30,0.8,-0.434,M,41.805,M,1.0,3961*69
$GPGGA,091111.00,5908.05291591,N,00937.85222343,E,4,30,0.8,-0.449,M,41.805,M,1.0,3961*65
$GPGGA,091112.00,5908.05291495,N,00937.85222330,E,4,30,0.8,-0.445,M,41.805,M,1.0,3961*6B
$GPGGA,091113.00,5908.05290694,N,00937.85223169,E,4,30,0.8,-0.445,M,41.805,M,1.0,3961*67
$GPGGA,091114.00,5908.05290217,N,00937.85224178,E,4,30,0.8,-0.453,M,41.805,M,1.0,3961*6F
$GPGGA,091115.00,5908.05291084,N,00937.85223493,E,4,30,0.8,-0.451,M,41.805,M,1.0,3961*62
$GPGGA,091116.00,5908.05291823,N,00937.85223209,E,4,30,0.8,-0.441,M,41.805,M,1.0,3961*60
$GPGGA,091117.00,5908.05291304,N,00937.85223224,E,4,31,0.8,-0.447,M,41.805,M,1.0,3961*67
$GPGGA,091118.00,5908.05291361,N,00937.85222979,E,4,31,0.8,-0.450,M,41.805,M,1.0,3961*6F
$GPGGA,091119.00,5908.05291214,N,00937.85222823,E,4,31,0.8,-0.445,M,41.805,M,1.0,3961*67
$GPGGA,091120.00,5908.05291044,N,00937.85223384,E,4,31,0.8,-0.456,M,41.805,M,1.0,3961*6F
$GPGGA,091121.00,5908.05291010,N,00937.85222475,E,4,30,0.8,-0.463,M,41.805,M,1.0,3961*60
$GPGGA,091122.00,5908.05291613,N,00937.85222485,E,4,27,0.8,-0.454,M,41.805,M,1.0,3961*6B
$GPGGA,091123.00,5908.05291833,N,00937.85221611,E,4,27,0.8,-0.447,M,41.805,M,1.0,3961*68
$GPGGA,091124.00,5908.05290781,N,00937.85218839,E,4,27,0.8,-0.411,M,41.805,M,1.0,3961*65
$GPGGA,091125.00,5908.05291255,N,00937.85217174,E,4,25,0.8,-0.416,M,41.805,M,1.0,3961*63
$GPGGA,091126.00,5908.05292812,N,00937.85218348,E,4,27,0.8,-0.412,M,41.805,M,1.0,3961*6E
$GPGGA,091127.00,5908.05292535,N,00937.85216332,E,4,30,0.8,-0.379,M,41.805,M,1.0,3961*68
$GPGGA,091128.00,5908.05291930,N,00937.85218975,E,4,30,0.8,-0.397,M,41.805,M,1.0,3961*6A
$GPGGA,091129.00,5908.05291781,N,00937.85219813,E,4,30,0.8,-0.428,M,41.805,M,1.0,3961*6C
$GPGGA,091130.00,5908.05292282,N,00937.85220376,E,4,30,0.8,-0.411,M,41.805,M,1.0,3961*69
$GPGGA,091131.00,5908.05292248,N,00937.85220680,E,4,29,0.7,-0.423,M,41.805,M,1.0,3961*64
$GPGGA,091132.00,5908.05293034,N,00937.85219757,E,4,29,0.7,-0.427,M,41.805,M,1.0,3961*6A
$GPGGA,091133.00,5908.05293087,N,00937.85218860,E,4,29,0.7,-0.416,M,41.805,M,1.0,3961*6B
$GPGGA,091134.00,5908.05293561,N,00937.85216993,E,4,29,0.8,-0.418,M,41.805,M,1.0,3961*63
$GPGGA,091135.00,5908.05293637,N,00937.85216198,E,4,29,0.8,-0.425,M,41.805,M,1.0,3961*6F
$GPGGA,091136.00,5908.05294038,N,00937.85215894,E,4,29,0.8,-0.430,M,41.805,M,1.0,3961*60
$GPGGA,091137.00,5908.05293947,N,00937.85218017,E,4,29,0.8,-0.422,M,41.805,M,1.0,3961*6A
$GPGGA,091138.00,5908.05293736,N,00937.85218026,E,4,29,0.7,-0.427,M,41.805,M,1.0,3961*65
$GPGGA,091139.00,5908.05293706,N,00937.85217728,E,4,29,0.7,-0.423,M,41.805,M,1.0,3961*65
$GPGGA,091140.00,5908.05293106,N,00937.85217886,E,4,28,0.7,-0.413,M,41.805,M,1.0,3961*64
$GPGGA,091141.00,5908.05293128,N,00937.85218281,E,4,28,0.7,-0.417,M,41.805,M,1.0,3961*6F
$GPGGA,091142.00,5908.05293172,N,00937.85218485,E,4,28,0.7,-0.412,M,41.805,M,1.0,3961*64
$GPGGA,091143.00,5908.05293269,N,00937.85218269,E,4,28,0.7,-0.412,M,41.805,M,1.0,3961*68
$GPGGA,091144.00,5908.05293116,N,00937.85218024,E,4,27,0.7,-0.419,M,41.805,M,1.0,3961*6B
$GPGGA,091145.00,5908.05293322,N,00937.85218142,E,4,27,0.7,-0.414,M,41.805,M,1.0,3961*63
$GPGGA,091146.00,5908.05293397,N,00937.85218214,E,4,27,0.7,-0.418,M,41.805,M,1.0,3961*62
$GPGGA,091147.00,5908.05293039,N,00937.85218532,E,4,27,0.7,-0.417,M,41.805,M,1.0,3961*68
$GPGGA,091148.00,5908.05293078,N,00937.85218566,E,4,27,0.7,-0.417,M,41.805,M,1.0,3961*63
$GPGGA,091149.00,5908.05293544,N,00937.85216962,E,4,27,0.7,-0.413,M,41.805,M,1.0,3961*6A
$GPGGA,091150.00,5908.05293685,N,00937.85217688,E,4,26,0.7,-0.430,M,41.805,M,1.0,3961*66
$GPGGA,091151.00,5908.05293858,N,00937.85217711,E,4,28,0.7,-0.413,M,41.805,M,1.0,3961*67
$GPGGA,091152.00,5908.05293971,N,00937.85217780,E,4,28,0.7,-0.420,M,41.805,M,1.0,3961*66
$GPGGA,091153.00,5908.05293003,N,00937.85217098,E,4,29,0.7,-0.421,M,41.805,M,1.0,3961*65
$GPGGA,091154.00,5908.05293731,N,00937.85216104,E,4,28,0.7,-0.462,M,41.805,M,1.0,3961*67
$GPGGA,091155.00,5908.05293137,N,00937.85216251,E,4,26,0.7,-0.430,M,41.805,M,1.0,3961*6C
$GPGGA,091156.00,5908.05292489,N,00937.85218181,E,4,25,0.7,-0.427,M,41.805,M,1.0,3961*6B
$GPGGA,091157.00,5908.05292547,N,00937.85218842,E,4,28,0.7,-0.429,M,41.805,M,1.0,3961*6C
$GPGGA,091158.00,5908.05291937,N,00937.85219429,E,4,30,0.7,-0.429,M,41.805,M,1.0,3961*62
$GPGGA,091159.00,5908.05292257,N,00937.85219346,E,4,30,0.7,-0.428,M,41.805,M,1.0,3961*62
$GPGGA,091200.00,5908.05292501,N,00937.85219301,E,4,31,0.7,-0.420,M,41.805,M,1.0,3961*63
$GPGGA,091201.00,5908.05292734,N,00937.85219408,E,4,31,0.7,-0.422,M,41.805,M,1.0,3961*6A
$GPGGA,091202.00,5908.05292860,N,00937.85219596,E,4,30,0.6,-0.424,M,41.805,M,1.0,3961*67
$GPGGA,091203.00,5908.05292939,N,00937.85219116,E,4,30,0.6,-0.429,M,41.805,M,1.0,3961*6A
$GPGGA,091204.00,5908.05292244,N,00937.85220067,E,4,29,0.6,-0.431,M,41.805,M,1.0,3961*60
$GPGGA,091205.00,5908.05292571,N,00937.85219690,E,4,29,0.7,-0.419,M,41.805,M,1.0,3961*6F
$GPGGA,091206.00,5908.05292374,N,00937.85219373,E,4,28,0.7,-0.419,M,41.805,M,1.0,3961*66
$GPGGA,091207.00,5908.05292720,N,00937.85219381,E,4,28,0.7,-0.438,M,41.805,M,1.0,3961*6C
$GPGGA,091208.00,5908.05292407,N,00937.85219387,E,4,28,0.7,-0.416,M,41.805,M,1.0,3961*6F
$GPGGA,091209.00,5908.05292339,N,00937.85219455,E,4,28,0.7,-0.424,M,41.805,M,1.0,3961*6D
$GPGGA,091210.00,5908.05292170,N,00937.85219599,E,4,28,0.7,-0.423,M,41.805,M,1.0,3961*6C
$GPGGA,091211.00,5908.05292604,N,00937.85219549,E,4,28,0.7,-0.420,M,41.805,M,1.0,3961*67
$GPGGA,091212.00,5908.05292201,N,00937.85219713,E,4,28,0.7,-0.424,M,41.805,M,1.0,3961*6C
$GPGGA,091213.00,5908.05292921,N,00937.85218925,E,4,28,0.7,-0.422,M,41.805,M,1.0,3961*68
$GPGGA,091214.00,5908.05292661,N,00937.85219797,E,4,28,0.7,-0.422,M,41.805,M,1.0,3961*62
$GPGGA,091215.00,5908.05292844,N,00937.85219189,E,4,28,0.7,-0.426,M,41.805,M,1.0,3961*67
$GPGGA,091216.00,5908.05292318,N,00937.85219799,E,4,28,0.7,-0.430,M,41.805,M,1.0,3961*66
$GPGGA,091217.00,5908.05292155,N,00937.85220237,E,4,29,0.7,-0.421,M,41.805,M,1.0,3961*66
$GPGGA,091218.00,5908.05292572,N,00937.85219185,E,4,29,0.7,-0.427,M,41.805,M,1.0,3961*6E
$GPGGA,091219.00,5908.05293341,N,00937.85218903,E,4,30,0.7,-0.426,M,41.805,M,1.0,3961*66
$GPGGA,091220.00,5908.05293275,N,00937.85219519,E,4,29,0.7,-0.422,M,41.805,M,1.0,3961*60
$GPGGA,091221.00,5908.05292782,N,00937.85220015,E,4,30,0.7,-0.421,M,41.805,M,1.0,3961*65
$GPGGA,091222.00,5908.05292769,N,00937.85219529,E,4,29,0.7,-0.417,M,41.805,M,1.0,3961*6E
$GPGGA,091223.00,5908.05292204,N,00937.85220296,E,4,30,0.7,-0.428,M,41.805,M,1.0,3961*6C
$GPGGA,091224.00,5908.05292284,N,00937.85220628,E,4,30,0.7,-0.428,M,41.805,M,1.0,3961*62
$GPGGA,091225.00,5908.05291514,N,00937.85220790,E,4,30,0.7,-0.434,M,41.805,M,1.0,3961*61
$GPGGA,091226.00,5908.05292319,N,00937.85220256,E,4,29,0.7,-0.424,M,41.805,M,1.0,3961*6C
$GPGGA,091227.00,5908.05292202,N,00937.85219881,E,4,29,0.7,-0.414,M,41.805,M,1.0,3961*6F
$GPGGA,091228.00,5908.05292136,N,00937.85219599,E,4,29,0.7,-0.415,M,41.805,M,1.0,3961*61
$GPGGA,091229.00,5908.05292060,N,00937.85219901,E,4,28,0.7,-0.403,M,41.805,M,1.0,3961*69
$GPGGA,091230.00,5908.05291871,N,00937.85220295,E,4,29,0.7,-0.402,M,41.805,M,1.0,3961*66
$GPGGA,091231.00,5908.05291636,N,00937.85220749,E,4,28,0.7,-0.402,M,41.805,M,1.0,3961*6F
$GPGGA,091232.00,5908.05292306,N,00937.85219409,E,4,29,0.7,-0.402,M,41.805,M,1.0,3961*65
$GPGGA,091233.00,5908.05292557,N,00937.85219736,E,4,29,0.7,-0.408,M,41.805,M,1.0,3961*63
$GPGGA,091234.00,5908.05292256,N,00937.85219651,E,4,30,0.7,-0.401,M,41.805,M,1.0,3961*63
$GPGGA,091235.00,5908.05292224,N,00937.85219935,E,4,29,0.7,-0.406,M,41.805,M,1.0,3961*65
$GPGGA,091236.00,5908.05292075,N,00937.85220533,E,4,30,0.7,-0.400,M,41.805,M,1.0,3961*6E
$GPGGA,091237.00,5908.05292596,N,00937.85219939,E,4,29,0.6,-0.439,M,41.805,M,1.0,3961*68
$GPGGA,091238.00,5908.05292531,N,00937.85220571,E,4,29,0.6,-0.425,M,41.805,M,1.0,3961*6D
$GPGGA,091239.00,5908.05292216,N,00937.85220545,E,4,29,0.7,-0.429,M,41.805,M,1.0,3961*64
$GPGGA,091240.00,5908.05292437,N,00937.85220544,E,4,28,0.7,-0.424,M,41.805,M,1.0,3961*62
$GPGGA,091241.00,5908.05292381,N,00937.85220774,E,4,29,0.7,-0.432,M,41.805,M,1.0,3961*6E
$GPGGA,091242.00,5908.05292568,N,00937.85220720,E,4,29,0.7,-0.433,M,41.805,M,1.0,3961*6C
$GPGGA,091243.00,5908.05292398,N,00937.85220518,E,4,29,0.7,-0.430,M,41.805,M,1.0,3961*6E
$GPGGA,091244.00,5908.05292835,N,00937.85220008,E,4,28,0.7,-0.438,M,41.805,M,1.0,3961*68
$GPGGA,091245.00,5908.05292251,N,00937.85220445,E,4,28,0.7,-0.447,M,41.805,M,1.0,3961*64
$GPGGA,091246.00,5908.05292481,N,00937.85220065,E,4,28,0.7,-0.438,M,41.805,M,1.0,3961*62
$GPGGA,091247.00,5908.05292729,N,00937.85220166,E,4,28,0.7,-0.436,M,41.805,M,1.0,3961*6E
$GPGGA,091248.00,5908.05292707,N,00937.85220202,E,4,28,0.7,-0.441,M,41.805,M,1.0,3961*6C
$GPGGA,091249.00,5908.05292352,N,00937.85220116,E,4,27,0.7,-0.441,M,41.805,M,1.0,3961*60
$GPGGA,091250.00,5908.05292535,N,00937.85220481,E,4,28,0.7,-0.443,M,41.805,M,1.0,3961*69
$GPGGA,091251.00,5908.05292514,N,00937.85220439,E,4,28,0.7,-0.436,M,41.805,M,1.0,3961*6A
$GPGGA,091252.00,5908.05292488,N,00937.85219988,E,4,27,0.7,-0.437,M,41.805,M,1.0,3961*6E
$GPGGA,091253.00,5908.05292498,N,00937.85220821,E,4,28,0.7,-0.433,M,41.805,M,1.0,3961*6D
$GPGGA,091254.00,5908.05292765,N,00937.85220457,E,4,29,0.7,-0.432,M,41.805,M,1.0,3961*66
$GPGGA,091255.00,5908.05292376,N,00937.85220559,E,4,28,0.7,-0.445,M,41.805,M,1.0,3961*6F
$GPGGA,091256.00,5908.05292375,N,00937.85221065,E,4,29,0.7,-0.441,M,41.805,M,1.0,3961*61
$GPGGA,091257.00,5908.05292514,N,00937.85220767,E,4,29,0.7,-0.435,M,41.805,M,1.0,3961*66
$GPGGA,091258.00,5908.05292408,N,00937.85220765,E,4,29,0.7,-0.435,M,41.805,M,1.0,3961*67
$GPGGA,091259.00,5908.05292551,N,00937.85220993,E,4,29,0.7,-0.437,M,41.805,M,1.0,3961*6E
$GPGGA,091300.00,5908.05292672,N,00937.85221067,E,4,29,0.7,-0.434,M,41.805,M,1.0,3961*61
$GPGGA,091301.00,5908.05292565,N,00937.85220974,E,4,29,0.7,-0.431,M,41.805,M,1.0,3961*6A
$GPGGA,091302.00,5908.05292460,N,00937.85221220,E,4,29,0.7,-0.431,M,41.805,M,1.0,3961*66
$GPGGA,091303.00,5908.05292696,N,00937.85221203,E,4,29,0.7,-0.425,M,41.805,M,1.0,3961*68
$GPGGA,091304.00,5908.05292307,N,00937.85221348,E,4,29,0.7,-0.428,M,41.805,M,1.0,3961*61
$GPGGA,091305.00,5908.05292450,N,00937.85221388,E,4,29,0.7,-0.427,M,41.805,M,1.0,3961*66
$GPGGA,091306.00,5908.05292712,N,00937.85220963,E,4,29,0.7,-0.432,M,41.805,M,1.0,3961*6A
$GPGGA,091307.00,5908.05292644,N,00937.85220661,E,4,29,0.7,-0.424,M,41.805,M,1.0,3961*63
$GPGGA,091308.00,5908.05292722,N,00937.85221104,E,4,29,0.7,-0.431,M,41.805,M,1.0,3961*6C
$GPGGA,091309.00,5908.05292428,N,00937.85220696,E,4,30,0.7,-0.430,M,41.805,M,1.0,3961*60
$GPGGA,091310.00,5908.05292565,N,00937.85220883,E,4,29,0.7,-0.431,M,41.805,M,1.0,3961*63
$GPGGA,091311.00,5908.05292537,N,00937.85220607,E,4,29,0.7,-0.430,M,41.805,M,1.0,3961*66
$GPGGA,091312.00,5908.05292539,N,00937.85220851,E,4,29,0.7,-0.426,M,41.805,M,1.0,3961*61
$GPGGA,091313.00,5908.05292691,N,00937.85220587,E,4,29,0.7,-0.428,M,41.805,M,1.0,3961*69
$GPGGA,091314.00,5908.05292382,N,00937.85220739,E,4,30,0.7,-0.427,M,41.805,M,1.0,3961*69
$GPGGA,091315.00,5908.05292285,N,00937.85220389,E,4,30,0.7,-0.431,M,41.805,M,1.0,3961*66
$GPGGA,091316.00,5908.05292689,N,00937.85220039,E,4,29,0.7,-0.423,M,41.805,M,1.0,3961*6E
$GPGGA,091317.00,5908.05292647,N,00937.85220505,E,4,29,0.7,-0.427,M,41.805,M,1.0,3961*63
$GPGGA,091318.00,5908.05292938,N,00937.85220178,E,4,29,0.7,-0.434,M,41.805,M,1.0,3961*67
$GPGGA,091319.00,5908.05292647,N,00937.85220244,E,4,29,0.7,-0.433,M,41.805,M,1.0,3961*6A
$GPGGA,091320.00,5908.05292606,N,00937.85220350,E,4,29,0.7,-0.434,M,41.805,M,1.0,3961*66
$GPGGA,091321.00,5908.05292429,N,00937.85220789,E,4,29,0.7,-0.436,M,41.805,M,1.0,3961*6A
$GPGGA,091322.00,5908.05292692,N,00937.85220257,E,4,29,0.7,-0.433,M,41.805,M,1.0,3961*68
$GPGGA,091323.00,5908.05292763,N,00937.85220192,E,4,29,0.7,-0.432,M,41.805,M,1.0,3961*6D
$GPGGA,091324.00,5908.05292699,N,00937.85220205,E,4,29,0.7,-0.439,M,41.805,M,1.0,3961*68
$GPGGA,091325.00,5908.05292733,N,00937.85220536,E,4,29,0.7,-0.432,M,41.805,M,1.0,3961*64
$GPGGA,091326.00,5908.05292479,N,00937.85220329,E,4,31,0.7,-0.438,M,41.805,M,1.0,3961*61
$GPGGA,091327.00,5908.05292579,N,00937.85220487,E,4,31,0.7,-0.428,M,41.805,M,1.0,3961*63
$GPGGA,091328.00,5908.05292463,N,00937.85220519,E,4,31,0.7,-0.433,M,41.805,M,1.0,3961*6A
$GPGGA,091329.00,5908.05292605,N,00937.85220426,E,4,29,0.7,-0.432,M,41.805,M,1.0,3961*6C
$GPGGA,091330.00,5908.05292728,N,00937.85220156,E,4,30,0.7,-0.434,M,41.805,M,1.0,3961*66
$GPGGA,091331.00,5908.05292685,N,00937.85220352,E,4,30,0.7,-0.433,M,41.805,M,1.0,3961*60
$GPGGA,091332.00,5908.05292699,N,00937.85220413,E,4,30,0.7,-0.437,M,41.805,M,1.0,3961*68
$GPGGA,091333.00,5908.05292489,N,00937.85220590,E,4,31,0.7,-0.431,M,41.805,M,1.0,3961*67
$GPGGA,091334.00,5908.05292609,N,00937.85220482,E,4,31,0.7,-0.427,M,41.805,M,1.0,3961*6F
$GPGGA,091335.00,5908.05292575,N,00937.85220397,E,4,31,0.7,-0.432,M,41.805,M,1.0,3961*61
$GPGGA,091336.00,5908.05292633,N,00937.85220427,E,4,31,0.7,-0.429,M,41.805,M,1.0,3961*65
$GPGGA,091337.00,5908.05292796,N,00937.85219972,E,4,31,0.7,-0.431,M,41.805,M,1.0,3961*64
$GPGGA,091338.00,5908.05292828,N,00937.85220213,E,4,31,0.7,-0.427,M,41.805,M,1.0,3961*60
$GPGGA,091339.00,5908.05292919,N,00937.85220427,E,4,30,0.7,-0.426,M,41.805,M,1.0,3961*63
$GPGGA,091340.00,5908.05292856,N,00937.85220371,E,4,30,0.7,-0.424,M,41.805,M,1.0,3961*61
$GPGGA,091341.00,5908.05292715,N,00937.85220533,E,4,30,0.7,-0.425,M,41.805,M,1.0,3961*69
$GPGGA,091342.00,5908.05292620,N,00937.85220613,E,4,31,0.7,-0.428,M,41.805,M,1.0,3961*60
$GPGGA,091343.00,5908.05292656,N,00937.85220531,E,4,30,0.7,-0.427,M,41.805,M,1.0,3961*6D
$GPGGA,091344.00,5908.05292821,N,00937.85220313,E,4,31,0.7,-0.423,M,41.805,M,1.0,3961*67
$GPGGA,091345.00,5908.05292665,N,00937.85220491,E,4,31,0.7,-0.422,M,41.805,M,1.0,3961*64
$GPGGA,091346.00,5908.05292798,N,00937.85220266,E,4,30,0.7,-0.428,M,41.805,M,1.0,3961*61
$GPGGA,091347.00,5908.05292797,N,00937.85220494,E,4,31,0.7,-0.427,M,41.805,M,1.0,3961*6A
$GPGGA,091348.00,5908.05292978,N,00937.85220423,E,4,30,0.7,-0.426,M,41.805,M,1.0,3961*66
$GPGGA,091349.00,5908.05292942,N,00937.85220303,E,4,29,0.7,-0.425,M,41.805,M,1.0,3961*60
$GPGGA,091350.00,5908.05292762,N,00937.85220347,E,4,31,0.7,-0.439,M,41.805,M,1.0,3961*60
$GPGGA,091351.00,5908.05292883,N,00937.85220593,E,4,30,0.7,-0.421,M,41.805,M,1.0,3961*66
$GPGGA,091352.00,5908.05292674,N,00937.85220401,E,4,30,0.7,-0.430,M,41.805,M,1.0,3961*69
$GPGGA,091353.00,5908.05292746,N,00937.85220388,E,4,30,0.7,-0.432,M,41.805,M,1.0,3961*6C
$GPGGA,091354.00,5908.05292912,N,00937.85220725,E,4,30,0.7,-0.436,M,41.805,M,1.0,3961*63
$GPGGA,091355.00,5908.05292923,N,00937.85220639,E,4,30,0.7,-0.429,M,41.805,M,1.0,3961*62
$GPGGA,091356.00,5908.05293163,N,00937.85220253,E,4,30,0.7,-0.430,M,41.805,M,1.0,3961*6C
$GPGGA,091357.00,5908.05292967,N,00937.85220455,E,4,30,0.7,-0.432,M,41.805,M,1.0,3961*62
$GPGGA,091358.00,5908.05293112,N,00937.85219915,E,4,28,0.7,-0.434,M,41.805,M,1.0,3961*6A
$GPGGA,091359.00,5908.05293153,N,00937.85220045,E,4,29,0.7,-0.425,M,41.805,M,1.0,3961*69
$GPGGA,091400.00,5908.05293199,N,00937.85219985,E,4,29,0.7,-0.427,M,41.805,M,1.0,3961*69
$GPGGA,091401.00,5908.05292934,N,00937.85220100,E,4,29,0.7,-0.437,M,41.805,M,1.0,3961*68
$GPGGA,091402.00,5908.05293014,N,00937.85220196,E,4,29,0.7,-0.430,M,41.805,M,1.0,3961*69
$GPGGA,091403.00,5908.05293209,N,00937.85220054,E,4,30,0.7,-0.424,M,41.805,M,1.0,3961*64
$GPGGA,091404.00,5908.05293404,N,00937.85220020,E,4,29,0.7,-0.427,M,41.805,M,1.0,3961*60
$GPGGA,091405.00,5908.05293260,N,00937.85220146,E,4,29,0.7,-0.427,M,41.805,M,1.0,3961*64
$GPGGA,091406.00,5908.05293324,N,00937.85220130,E,4,29,0.7,-0.426,M,41.805,M,1.0,3961*66
$GPGGA,091407.00,5908.05293592,N,00937.85219798,E,4,29,0.7,-0.428,M,41.805,M,1.0,3961*6C
$GPGGA,091408.00,5908.05293404,N,00937.85219825,E,4,30,0.7,-0.425,M,41.805,M,1.0,3961*61
$GPGGA,091409.00,5908.05293298,N,00937.85220052,E,4,30,0.7,-0.424,M,41.805,M,1.0,3961*60
$GPGGA,091410.00,5908.05293329,N,00937.85219948,E,4,29,0.7,-0.426,M,41.805,M,1.0,3961*61
$GPGGA,091411.00,5908.05293108,N,00937.85220423,E,4,29,0.7,-0.425,M,41.805,M,1.0,3961*68
$GPGGA,091412.00,5908.05292972,N,00937.85220207,E,4,29,0.7,-0.424,M,41.805,M,1.0,3961*6E
$GPGGA,091413.00,5908.05292935,N,00937.85220162,E,4,29,0.7,-0.428,M,41.805,M,1.0,3961*60
$GPGGA,091414.00,5908.05292899,N,00937.85219674,E,4,30,0.7,-0.426,M,41.805,M,1.0,3961*6C
$GPGGA,091415.00,5908.05293125,N,00937.85220502,E,4,29,0.7,-0.408,M,41.805,M,1.0,3961*6E
$GPGGA,091416.00,5908.05293417,N,00937.85219882,E,4,29,0.7,-0.415,M,41.805,M,1.0,3961*6A
$GPGGA,091417.00,5908.05293646,N,00937.85220021,E,4,30,0.7,-0.400,M,41.805,M,1.0,3961*6A
$GPGGA,091418.00,5908.05293662,N,00937.85219674,E,4,30,0.7,-0.407,M,41.805,M,1.0,3961*68
$GPGGA,091419.00,5908.05293557,N,00937.85219523,E,4,30,0.7,-0.414,M,41.805,M,1.0,3961*6F
$GPGGA,091420.00,5908.05294109,N,00937.85219731,E,4,29,0.7,-0.398,M,41.805,M,1.0,3961*67
$GPGGA,091421.00,5908.05293426,N,00937.85219866,E,4,29,0.7,-0.403,M,41.805,M,1.0,3961*61
