$GPGGA,083959.00,5939.93740031,N,01029.20743902,E,4,28,0.7,184.378,M,40.283,M,1.0,1673*44
$GPGGA,084000.00,5939.93742185,N,01029.20742821,E,4,27,0.7,184.467,M,40.283,M,1.0,1673*4D
$GPGGA,084001.00,5939.93741891,N,01029.20743147,E,4,27,0.7,184.459,M,40.283,M,1.0,1673*46
$GPGGA,084002.00,5939.93741771,N,01029.20742822,E,4,28,0.7,184.457,M,40.283,M,1.0,1673*4E
$GPGGA,084003.00,5939.93742187,N,01029.20742856,E,4,28,0.7,184.465,M,40.283,M,1.0,1673*41
$GPGGA,084004.00,5939.93742719,N,01029.20742841,E,4,27,0.7,184.490,M,40.283,M,1.0,1673*44
$GPGGA,084005.00,5939.93742062,N,01029.20742802,E,4,27,0.7,184.460,M,40.283,M,1.0,1673*46
$GPGGA,084006.00,5939.93741946,N,01029.20742984,E,4,27,0.7,184.456,M,40.283,M,1.0,1673*43
$GPGGA,084007.00,5939.93742129,N,01029.20743007,E,4,27,0.7,184.461,M,40.283,M,1.0,1673*47
$GPGGA,084008.00,5939.93742082,N,01029.20742823,E,4,27,0.7,184.465,M,40.283,M,1.0,1673*43
$GPGGA,084009.00,5939.93741975,N,01029.20742894,E,4,27,0.7,184.461,M,40.283,M,1.0,1673*48
$GPGGA,084010.00,5939.93741942,N,01029.20742888,E,4,27,0.7,184.451,M,40.283,M,1.0,1673*4A
$GPGGA,084011.00,5939.93741875,N,01029.20742909,E,4,27,0.7,184.461,M,40.283,M,1.0,1673*45
$GPGGA,084012.00,5939.93741942,N,01029.20742805,E,4,27,0.7,184.447,M,40.283,M,1.0,1673*4A
$GPGGA,084013.00,5939.93741712,N,01029.20742905,E,4,27,0.7,184.445,M,40.283,M,1.0,1673*43
$GPGGA,084014.00,5939.93741887,N,01029.20742800,E,4,27,0.7,184.455,M,40.283,M,1.0,1673*42
$GPGGA,084015.00,5939.93741841,N,01029.20743082,E,4,27,0.7,184.454,M,40.283,M,1.0,1673*4B
$GPGGA,084016.00,5939.93741835,N,01029.20743221,E,4,26,0.7,184.456,M,40.283,M,1.0,1673*43
$GPGGA,084017.00,5939.93741711,N,01029.20742858,E,4,26,0.7,184.453,M,40.283,M,1.0,1673*4B
$GPGGA,084018.00,5939.93741673,N,01029.20742832,E,4,27,0.7,184.455,M,40.283,M,2.0,1673*49
$GPGGA,084019.00,5939.93741657,N,01029.20743185,E,4,27,0.7,184.442,M,40.283,M,1.0,1673*4F
$GPGGA,084020.00,5939.93741258,N,01029.20743351,E,4,26,0.7,184.427,M,40.283,M,1.0,1673*47
$GPGGA,084021.00,5939.93741241,N,01029.20743332,E,4,26,0.7,184.425,M,40.283,M,1.0,1673*49
$GPGGA,084022.00,5939.93741319,N,01029.20743563,E,4,26,0.7,184.428,M,40.283,M,1.0,1673*49
$GPGGA,084023.00,5939.93741537,N,01029.20743147,E,4,26,0.7,184.439,M,40.283,M,1.0,1673*40
$GPGGA,084024.00,5939.93741453,N,01029.20743442,E,4,26,0.7,184.435,M,40.283,M,1.0,1673*48
$GPGGA,084025.00,5939.93741371,N,01029.20743334,E,4,26,0.7,184.432,M,40.283,M,1.0,1673*4F
$GPGGA,084026.00,5939.93741460,N,01029.20743304,E,4,26,0.6,184.433,M,40.283,M,1.0,1673*48
$GPGGA,084027.00,5939.93741428,N,01029.20743402,E,4,26,0.6,184.441,M,40.283,M,1.0,1673*41
$GPGGA,084028.00,5939.93741476,N,01029.20743240,E,4,27,0.6,184.435,M,40.283,M,1.0,1673*47
$GPGGA,084029.00,5939.93741584,N,01029.20743072,E,4,27,0.6,184.443,M,40.283,M,1.0,1673*48
$GPGGA,084030.00,5939.93741351,N,01029.20743351,E,4,27,0.7,184.430,M,40.283,M,1.0,1673*49
$GPGGA,084031.00,5939.93741217,N,01029.20743190,E,4,27,0.7,184.431,M,40.283,M,1.0,1673*45
$GPGGA,084032.00,5939.93741491,N,01029.20743284,E,4,27,0.7,184.435,M,40.283,M,1.0,1673*4C
$GPGGA,084033.00,5939.93741586,N,01029.20743295,E,4,27,0.7,184.440,M,40.283,M,1.0,1673*48
$GPGGA,084034.00,5939.93741427,N,01029.20743181,E,4,28,0.7,184.438,M,40.283,M,1.0,1673*43
$GPGGA,084035.00,5939.93740983,N,01029.20743502,E,4,28,0.7,184.412,M,40.283,M,1.0,1673*47
$GPGGA,084036.00,5939.93740791,N,01029.20743579,E,4,28,0.7,184.406,M,40.283,M,1.0,1673*40
$GPGGA,084037.00,5939.93740782,N,01029.20743581,E,4,27,0.7,184.404,M,40.283,M,2.0,1673*4A
$GPGGA,084038.00,5939.93740921,N,01029.20743492,E,4,26,0.7,184.413,M,40.283,M,1.0,1673*45
$GPGGA,084039.00,5939.93740840,N,01029.20743546,E,4,26,0.7,184.404,M,40.283,M,1.0,1673*4C
$GPGGA,084040.00,5939.93740981,N,01029.20743867,E,4,26,0.7,184.403,M,40.283,M,1.0,1673*47
$GPGGA,084041.00,5939.93740925,N,01029.20743741,E,4,26,0.7,184.407,M,40.283,M,1.0,1673*47
$GPGGA,084042.00,5939.93741049,N,01029.20743830,E,4,28,0.7,184.410,M,40.283,M,1.0,1673*47
$GPGGA,084043.00,5939.93741005,N,01029.20743849,E,4,28,0.7,184.410,M,40.283,M,2.0,1673*43
$GPGGA,084044.00,5939.93740870,N,01029.20743600,E,4,28,0.7,184.410,M,40.283,M,1.0,1673*4F
$GPGGA,084045.00,5939.93740859,N,01029.20743714,E,4,28,0.7,184.412,M,40.283,M,1.0,1673*43
$GPGGA,084046.00,5939.93740870,N,01029.20743619,E,4,28,0.7,184.413,M,40.283,M,1.0,1673*46
$GPGGA,084047.00,5939.93740832,N,01029.20743419,E,4,28,0.7,184.413,M,40.283,M,1.0,1673*43
$GPGGA,084048.00,5939.93740837,N,01029.20743797,E,4,28,0.7,184.411,M,40.283,M,1.0,1673*4E
$GPGGA,084049.00,5939.93740672,N,01029.20743751,E,4,28,0.7,184.407,M,40.283,M,2.0,1673*4E
$GPGGA,084050.00,5939.93741053,N,01029.20743554,E,4,28,0.7,184.418,M,40.283,M,1.0,1673*48
$GPGGA,084051.00,5939.93740867,N,01029.20743673,E,4,28,0.7,184.416,M,40.283,M,1.0,1673*4F
$GPGGA,084052.00,5939.93740939,N,01029.20743493,E,4,28,0.7,184.417,M,40.283,M,1.0,1673*4B
$GPGGA,084053.00,5939.93740924,N,01029.20743548,E,4,28,0.7,184.426,M,40.283,M,1.0,1673*43
$GPGGA,084054.00,5939.93741125,N,01029.20743520,E,4,28,0.7,184.427,M,40.283,M,1.0,1673*43
$GPGGA,084055.00,5939.93741186,N,01029.20743819,E,4,28,0.7,184.437,M,40.283,M,1.0,1673*4D
$GPGGA,084056.00,5939.93741346,N,01029.20743593,E,4,28,0.7,184.444,M,40.283,M,1.0,1673*4B
$GPGGA,084057.00,5939.93741247,N,01029.20743667,E,4,28,0.7,184.436,M,40.283,M,1.0,1673*47
$GPGGA,084058.00,5939.93741293,N,01029.20743851,E,4,28,0.7,184.437,M,40.283,M,1.0,1673*4B
$GPGGA,084059.00,5939.93741288,N,01029.20743488,E,4,28,0.7,184.430,M,40.283,M,1.0,1673*4F
$GPGGA,084100.00,5939.93741525,N,01029.20743594,E,4,28,0.7,184.436,M,40.283,M,1.0,1673*48
$GPGGA,084101.00,5939.93741350,N,01029.20743571,E,4,28,0.7,184.434,M,40.283,M,1.0,1673*44
$GPGGA,084102.00,5939.93741068,N,01029.20743731,E,4,28,0.7,184.416,M,40.283,M,1.0,1673*49
$GPGGA,084103.00,5939.93741049,N,01029.20743479,E,4,28,0.6,184.413,M,40.283,M,1.0,1673*40
$GPGGA,084104.00,5939.93741065,N,01029.20743484,E,4,28,0.6,184.413,M,40.283,M,1.0,1673*4B
$GPGGA,084105.00,5939.93740967,N,01029.20743692,E,4,29,0.6,184.415,M,40.283,M,1.0,1673*42
$GPGGA,084106.00,5939.93741073,N,01029.20743302,E,4,30,0.6,184.420,M,40.283,M,1.0,1673*4E
$GPGGA,084107.00,5939.93741475,N,01029.20743569,E,4,30,0.6,184.433,M,40.283,M,1.0,1673*44
$GPGGA,084108.00,5939.93741428,N,01029.20743687,E,4,29,0.6,184.428,M,40.283,M,1.0,1673*42
$GPGGA,084109.00,5939.93741208,N,01029.20743198,E,4,29,0.6,184.421,M,40.283,M,1.0,1673*47
$GPGGA,084110.00,5939.93741223,N,01029.20743234,E,4,29,0.6,184.424,M,40.283,M,1.0,1673*46
$GPGGA,084111.00,5939.93741053,N,01029.20743190,E,4,29,0.6,184.409,M,40.283,M,1.0,1673*40
$GPGGA,084112.00,5939.93741044,N,01029.20742887,E,4,29,0.6,184.417,M,40.283,M,1.0,1673*44
$GPGGA,084113.00,5939.93741432,N,01029.20743260,E,4,28,0.6,184.425,M,40.283,M,1.0,1673*42
$GPGGA,084114.00,5939.93740352,N,01029.20742595,E,4,28,0.7,184.395,M,40.283,M,1.0,1673*44
$GPGGA,084115.00,5939.93742247,N,01029.20743374,E,4,28,0.7,184.446,M,40.283,M,1.0,1673*43
$GPGGA,084116.00,5939.93742147,N,01029.20743767,E,4,28,0.7,184.444,M,40.283,M,2.0,1673*44
$GPGGA,084117.00,5939.93743018,N,01029.20744840,E,4,27,0.7,184.429,M,40.283,M,2.0,1673*46
$GPGGA,084118.00,5939.93743124,N,01029.20744910,E,4,26,0.7,184.422,M,40.283,M,2.0,1673*49
$GPGGA,084119.00,5939.93742856,N,01029.20745124,E,4,26,0.7,184.409,M,40.283,M,1.0,1673*41
$GPGGA,084120.00,5939.93743072,N,01029.20745415,E,4,28,0.7,184.420,M,40.283,M,1.0,1673*46
$GPGGA,084121.00,5939.93742005,N,01029.20745754,E,4,28,0.7,184.361,M,40.283,M,1.0,1673*42
$GPGGA,084122.00,5939.93742062,N,01029.20745725,E,4,28,0.7,184.360,M,40.283,M,1.0,1673*47
$GPGGA,084123.00,5939.93742048,N,01029.20745760,E,4,28,0.7,184.354,M,40.283,M,1.0,1673*48
$GPGGA,084124.00,5939.93742027,N,01029.20745848,E,4,27,0.7,184.365,M,40.283,M,1.0,1673*4E
$GPGGA,084125.00,5939.93742028,N,01029.20745637,E,4,26,0.7,184.363,M,40.283,M,1.0,1673*41
$GPGGA,084126.00,5939.93741916,N,01029.20745674,E,4,26,0.7,184.362,M,40.283,M,1.0,1673*43
$GPGGA,084127.00,5939.93742045,N,01029.20745621,E,4,27,0.7,184.364,M,40.283,M,1.0,1673*49
$GPGGA,084128.00,5939.93742065,N,01029.20745582,E,4,27,0.7,184.354,M,40.283,M,1.0,1673*4D
$GPGGA,084129.00,5939.93741994,N,01029.20745935,E,4,27,0.7,184.357,M,40.283,M,1.0,1673*4B
$GPGGA,084130.00,5939.93741888,N,01029.20745334,E,4,27,0.7,184.364,M,40.283,M,1.0,1673*44
$GPGGA,084131.00,5939.93741508,N,01029.20744765,E,4,26,0.7,184.337,M,40.283,M,1.0,1673*46
$GPGGA,084132.00,5939.93741392,N,01029.20742962,E,4,26,0.7,184.427,M,40.283,M,1.0,1673*49
$GPGGA,084133.00,5939.93741343,N,01029.20742830,E,4,25,0.7,184.416,M,40.283,M,1.0,1673*43
$GPGGA,084134.00,5939.93741375,N,01029.20743410,E,4,25,0.7,184.419,M,40.283,M,1.0,1673*41
$GPGGA,084135.00,5939.93742041,N,01029.20743460,E,4,25,0.7,184.425,M,40.283,M,1.0,1673*4F
$GPGGA,084136.00,5939.93741995,N,01029.20744505,E,4,25,0.7,184.383,M,40.283,M,1.0,1673*41
$GPGGA,084137.00,5939.93742215,N,01029.20744066,E,4,25,0.7,184.404,M,40.283,M,1.0,1673*48
$GPGGA,084138.00,5939.93742002,N,01029.20743850,E,4,25,0.7,184.395,M,40.283,M,1.0,1673*46
$GPGGA,084139.00,5939.93741975,N,01029.20743932,E,4,25,0.7,184.385,M,40.283,M,1.0,1673*49
$GPGGA,084140.00,5939.93741951,N,01029.20743882,E,4,26,0.7,184.383,M,40.283,M,2.0,1673*4D
$GPGGA,084141.00,5939.93743035,N,01029.20743909,E,4,26,0.7,184.463,M,40.283,M,1.0,1673*4D
$GPGGA,084142.00,5939.93742026,N,01029.20743814,E,4,26,0.7,184.398,M,40.283,M,1.0,1673*43
$GPGGA,084143.00,5939.93743021,N,01029.20743923,E,4,26,0.7,184.456,M,40.283,M,1.0,1673*44
$GPGGA,084144.00,5939.93741939,N,01029.20743954,E,4,26,0.7,184.393,M,40.283,M,1.0,1673*4F
$GPGGA,084145.00,5939.93742103,N,01029.20743718,E,4,26,0.7,184.397,M,40.283,M,1.0,1673*4E
$GPGGA,084146.00,5939.93742037,N,01029.20743993,E,4,26,0.7,184.393,M,40.283,M,1.0,1673*42
$GPGGA,084147.00,5939.93741963,N,01029.20744224,E,4,26,0.7,184.391,M,40.283,M,1.0,1673*4A
$GPGGA,084148.00,5939.93742072,N,01029.20743866,E,4,25,0.7,184.402,M,40.283,M,1.0,1673*4A
$GPGGA,084149.00,5939.93742290,N,01029.20743879,E,4,25,0.7,184.402,M,40.283,M,1.0,1673*4B
$GPGGA,084150.00,5939.93742199,N,01029.20743900,E,4,25,0.7,184.409,M,40.283,M,1.0,1673*4D
$GPGGA,084151.00,5939.93742254,N,01029.20743960,E,4,25,0.7,184.408,M,40.283,M,2.0,1673*4A
$GPGGA,084152.00,5939.93742155,N,01029.20743576,E,4,26,0.7,184.415,M,40.283,M,1.0,1673*4C
$GPGGA,084153.00,5939.93742106,N,01029.20743700,E,4,26,0.7,184.418,M,40.283,M,1.0,1673*45
$GPGGA,084154.00,5939.93742275,N,01029.20743759,E,4,26,0.7,184.418,M,40.283,M,1.0,1673*49
$GPGGA,084155.00,5939.93742176,N,01029.20743584,E,4,26,0.7,184.409,M,40.283,M,1.0,1673*4A
$GPGGA,084156.00,5939.93742098,N,01029.20743901,E,4,26,0.7,184.410,M,40.283,M,1.0,1673*41
$GPGGA,084157.00,5939.93741999,N,01029.20743782,E,4,26,0.7,184.408,M,40.283,M,2.0,1673*44
$GPGGA,084158.00,5939.93742253,N,01029.20743677,E,4,26,0.7,184.423,M,40.283,M,1.0,1673*44
$GPGGA,084159.00,5939.93742115,N,01029.20743637,E,4,26,0.7,184.415,M,40.283,M,1.0,1673*45
$GPGGA,084200.00,5939.93742275,N,01029.20743344,E,4,26,0.7,184.428,M,40.283,M,1.0,1673*40
$GPGGA,084201.00,5939.93742096,N,01029.20743245,E,4,26,0.7,184.425,M,40.283,M,1.0,1673*43
$GPGGA,084202.00,5939.93742190,N,01029.20743150,E,4,26,0.7,184.429,M,40.283,M,2.0,1673*4F
$GPGGA,084203.00,5939.93741847,N,01029.20743245,E,4,25,0.7,184.428,M,40.283,M,1.0,1673*48
$GPGGA,084204.00,5939.93741988,N,01029.20743455,E,4,25,0.7,184.425,M,40.283,M,1.0,1673*47
$GPGGA,084205.00,5939.93741709,N,01029.20743535,E,4,25,0.7,184.413,M,40.283,M,1.0,1673*43
$GPGGA,084206.00,5939.93742143,N,01029.20743626,E,4,25,0.7,184.430,M,40.283,M,1.0,1673*4B
$GPGGA,084207.00,5939.93741994,N,01029.20743047,E,4,25,0.7,184.429,M,40.283,M,1.0,1673*42
$GPGGA,084208.00,5939.93741815,N,01029.20743549,E,4,26,0.7,184.420,M,40.283,M,1.0,1673*44
$GPGGA,084209.00,5939.93741880,N,01029.20743375,E,4,26,0.7,184.407,M,40.283,M,1.0,1673*45
$GPGGA,084210.00,5939.93741803,N,01029.20743488,E,4,25,0.7,184.418,M,40.283,M,1.0,1673*4E
$GPGGA,084211.00,5939.93742146,N,01029.20743233,E,4,25,0.7,184.434,M,40.283,M,1.0,1673*4C
$GPGGA,084212.00,5939.93742187,N,01029.20743439,E,4,25,0.7,184.428,M,40.283,M,1.0,1673*43
$GPGGA,084213.00,5939.93741880,N,01029.20743560,E,4,25,0.7,184.426,M,40.283,M,1.0,1673*4C
$GPGGA,084214.00,5939.93742094,N,01029.20743392,E,4,25,0.7,184.430,M,40.283,M,1.0,1673*49
$GPGGA,084215.00,5939.93742285,N,01029.20743454,E,4,24,0.7,184.431,M,40.283,M,1.0,1673*47
$GPGGA,084216.00,5939.93741915,N,01029.20743564,E,4,24,0.7,184.423,M,40.283,M,1.0,1673*44
$GPGGA,084217.00,5939.93742159,N,01029.20743365,E,4,24,0.7,184.425,M,40.283,M,1.0,1673*47
$GPGGA,084218.00,5939.93741994,N,01029.20743585,E,4,24,0.7,184.425,M,40.283,M,1.0,1673*4A
$GPGGA,084219.00,5939.93742009,N,01029.20743404,E,4,24,0.7,184.425,M,40.283,M,2.0,1673*4E
$GPGGA,084220.00,5939.93742172,N,01029.20743611,E,4,24,0.7,184.431,M,40.283,M,1.0,1673*49
$GPGGA,084221.00,5939.93741894,N,01029.20743864,E,4,24,0.7,184.415,M,40.283,M,1.0,1673*40
$GPGGA,084222.00,5939.93742062,N,01029.20743999,E,4,25,0.7,184.408,M,40.283,M,1.0,1673*4F
$GPGGA,084223.00,5939.93741880,N,01029.20743856,E,4,26,0.7,184.408,M,40.283,M,1.0,1673*48
$GPGGA,084224.00,5939.93742050,N,01029.20743968,E,4,26,0.7,184.408,M,40.283,M,1.0,1673*45
$GPGGA,084225.00,5939.93741739,N,01029.20743924,E,4,26,0.7,184.398,M,40.283,M,1.0,1673*49
$GPGGA,084226.00,5939.93741621,N,01029.20743373,E,4,23,0.7,184.413,M,40.283,M,1.0,1673*4B
$GPGGA,084227.00,5939.93740764,N,01029.20743998,E,4,27,0.7,184.375,M,40.283,M,1.0,1673*47
$GPGGA,084228.00,5939.93740753,N,01029.20743952,E,4,27,0.7,184.376,M,40.283,M,1.0,1673*49
$GPGGA,084230.00,5939.93741080,N,01029.20744451,E,4,28,0.7,184.380,M,40.283,M,2.0,1673*44
$GPGGA,084231.00,5939.93741057,N,01029.20744340,E,4,24,0.7,184.358,M,40.283,M,1.0,1673*42
$GPGGA,084232.00,5939.93741159,N,01029.20744263,E,4,26,0.7,184.374,M,40.283,M,1.0,1673*42
$GPGGA,084233.00,5939.93741062,N,01029.20744347,E,4,26,0.7,184.364,M,40.283,M,1.0,1673*4C
$GPGGA,084234.00,5939.93741097,N,01029.20744217,E,4,26,0.7,184.367,M,40.283,M,1.0,1673*46
$GPGGA,084235.00,5939.93741180,N,01029.20744568,E,4,25,0.7,184.356,M,40.283,M,1.0,1673*4E
$GPGGA,084237.00,5939.93742104,N,01029.20744223,E,4,25,0.7,184.414,M,40.283,M,1.0,1673*4A
$GPGGA,084238.00,5939.93743437,N,01029.20743847,E,4,26,0.7,184.492,M,40.283,M,1.0,1673*43
$GPGGA,084239.00,5939.93742094,N,01029.20743922,E,4,26,0.7,184.413,M,40.283,M,1.0,1673*45
$GPGGA,084240.00,5939.93742194,N,01029.20744225,E,4,26,0.7,184.408,M,40.283,M,1.0,1673*4B
$GPGGA,084241.00,5939.93742544,N,01029.20743873,E,4,24,0.7,184.442,M,40.283,M,1.0,1673*41
$GPGGA,084242.00,5939.93742832,N,01029.20743500,E,4,24,0.7,184.474,M,40.283,M,1.0,1673*42
$GPGGA,084243.00,5939.93743153,N,01029.20743504,E,4,24,0.7,184.499,M,40.283,M,1.0,1673*4B
$GPGGA,084244.00,5939.93743442,N,01029.20744132,E,4,25,0.7,184.487,M,40.283,M,1.0,1673*41
$GPGGA,084245.00,5939.93741066,N,01029.20744991,E,4,25,0.7,184.357,M,40.283,M,1.0,1673*4B
$GPGGA,084246.00,5939.93741113,N,01029.20745283,E,4,25,0.7,184.338,M,40.283,M,1.0,1673*4B
$GPGGA,084247.00,5939.93741209,N,01029.20745669,E,4,25,0.7,184.339,M,40.283,M,1.0,1673*43
$GPGGA,084249.00,5939.93741309,N,01029.20745200,E,4,25,0.7,184.340,M,40.283,M,1.0,1673*49
$GPGGA,084250.00,5939.93741396,N,01029.20745215,E,4,24,0.7,184.346,M,40.283,M,1.0,1673*44
$GPGGA,084251.00,5939.93741228,N,01029.20745333,E,4,24,0.7,184.331,M,40.283,M,1.0,1673*44
$GPGGA,084252.00,5939.93741169,N,01029.20745124,E,4,24,0.7,184.324,M,40.283,M,1.0,1673*41
$GPGGA,084253.00,5939.93746249,N,01029.20742786,E,5,24,0.7,184.662,M,40.283,M,1.0,1673*49
$GPGGA,084254.00,5939.93745020,N,01029.20743586,E,5,26,0.7,184.572,M,40.283,M,1.0,1673*43
$GPGGA,084256.00,5939.93741156,N,01029.20745274,E,5,25,0.7,184.332,M,40.283,M,1.0,1673*48
$GPGGA,084257.00,5939.93741196,N,01029.20745310,E,5,25,0.7,184.336,M,40.283,M,1.0,1673*42
$GPGGA,084258.00,5939.93741196,N,01029.20745534,E,5,26,0.7,184.337,M,40.283,M,1.0,1673*4F
$GPGGA,084259.00,5939.93740884,N,01029.20745194,E,5,25,0.7,184.318,M,40.283,M,1.0,1673*45
$GPGGA,084300.00,5939.93740686,N,01029.20745378,E,5,25,0.7,184.308,M,40.283,M,1.0,1673*45
$GPGGA,084301.00,5939.93740851,N,01029.20745391,E,5,25,0.7,184.315,M,40.283,M,1.0,1673*4B
$GPGGA,084302.00,5939.93740755,N,01029.20745266,E,5,25,0.7,184.318,M,40.283,M,1.0,1673*47
$GPGGA,084303.00,5939.93742453,N,01029.20743012,E,5,25,0.7,184.482,M,40.283,M,1.0,1673*42
$GPGGA,084304.00,5939.93742487,N,01029.20743982,E,5,25,0.7,184.443,M,40.283,M,1.0,1673*41
$GPGGA,084305.00,5939.93746079,N,01029.20742497,E,5,25,0.7,184.675,M,40.283,M,1.0,1673*4E
$GPGGA,084306.00,5939.93746162,N,01029.20742549,E,5,24,0.7,184.674,M,40.283,M,2.0,1673*47
$GPGGA,084307.00,5939.93742547,N,01029.20744261,E,5,24,0.7,184.421,M,40.283,M,1.0,1673*4B
$GPGGA,084308.00,5939.93742302,N,01029.20744909,E,5,24,0.7,184.400,M,40.283,M,1.0,1673*45
$GPGGA,084309.00,5939.93742248,N,01029.20744858,E,5,25,0.7,184.393,M,40.283,M,1.0,1673*42
$GPGGA,084310.00,5939.93742788,N,01029.20744523,E,5,26,0.7,184.426,M,40.283,M,1.0,1673*48
$GPGGA,084311.00,5939.93742380,N,01029.20744641,E,5,25,0.7,184.402,M,40.283,M,1.0,1673*47
$GPGGA,084312.00,5939.93744787,N,01029.20740622,E,5,26,0.7,184.686,M,40.283,M,1.0,1673*4D
$GPGGA,084313.00,5939.93742556,N,01029.20744223,E,5,26,0.7,184.421,M,40.283,M,1.0,1673*4A
$GPGGA,084314.00,5939.93742098,N,01029.20744183,E,5,26,0.7,184.401,M,40.283,M,1.0,1673*41
$GPGGA,084315.00,5939.93742390,N,01029.20744284,E,5,25,0.7,184.415,M,40.283,M,1.0,1673*49
$GPGGA,084316.00,5939.93744362,N,01029.20739725,E,5,26,0.7,184.701,M,40.283,M,1.0,1673*40
$GPGGA,084317.00,5939.93744367,N,01029.20739631,E,5,26,0.7,184.704,M,40.283,M,1.0,1673*45
$GPGGA,084318.00,5939.93744194,N,01029.20739990,E,5,26,0.7,184.703,M,40.283,M,1.0,1673*47
$GPGGA,084319.00,5939.93744242,N,01029.20739702,E,5,26,0.7,184.703,M,40.283,M,1.0,1673*4B
$GPGGA,084320.00,5939.93744218,N,01029.20739993,E,5,25,0.7,184.695,M,40.283,M,1.0,1673*45
$GPGGA,084321.00,5939.93742526,N,01029.20743859,E,5,26,0.7,184.440,M,40.283,M,1.0,1673*4B
$GPGGA,084322.00,5939.93742436,N,01029.20744092,E,5,25,0.7,184.441,M,40.283,M,1.0,1673*42
$GPGGA,084323.00,5939.93741185,N,01029.20744692,E,5,25,0.7,184.359,M,40.283,M,1.0,1673*45
$GPGGA,084324.00,5939.93741358,N,01029.20744820,E,5,26,0.7,184.354,M,40.283,M,1.0,1673*49
$GPGGA,084325.00,5939.93741476,N,01029.20745014,E,5,26,0.7,184.362,M,40.283,M,1.0,1673*48
$GPGGA,084326.00,5939.93741423,N,01029.20744729,E,5,26,0.7,184.351,M,40.283,M,1.0,1673*43
$GPGGA,084327.00,5939.93741134,N,01029.20744433,E,5,26,0.7,184.343,M,40.283,M,1.0,1673*4A
$GPGGA,084328.00,5939.93741273,N,01029.20744762,E,5,26,0.7,184.350,M,40.283,M,1.0,1673*40
$GPGGA,084329.00,5939.93741258,N,01029.20744698,E,5,26,0.7,184.354,M,40.283,M,1.0,1673*48
$GPGGA,084330.00,5939.93741297,N,01029.20744600,E,5,25,0.7,184.357,M,40.283,M,1.0,1673*42
$GPGGA,084331.00,5939.93741328,N,01029.20744489,E,4,27,0.7,184.356,M,40.283,M,1.0,1673*47
$GPGGA,084332.00,5939.93741121,N,01029.20744634,E,4,27,0.7,184.353,M,40.283,M,1.0,1673*4E
$GPGGA,084333.00,5939.93741125,N,01029.20744439,E,4,27,0.7,184.354,M,40.283,M,1.0,1673*43
$GPGGA,084334.00,5939.93741118,N,01029.20744805,E,4,27,0.7,184.358,M,40.283,M,1.0,1673*45
$GPGGA,084335.00,5939.93741006,N,01029.20744610,E,4,27,0.7,184.359,M,40.283,M,1.0,1673*41
$GPGGA,084336.00,5939.93741184,N,01029.20744424,E,4,27,0.7,184.355,M,40.283,M,1.0,1673*40
$GPGGA,084337.00,5939.93741211,N,01029.20744268,E,4,27,0.7,184.352,M,40.283,M,1.0,1673*47
$GPGGA,084338.00,5939.93741175,N,01029.20744314,E,4,27,0.7,184.348,M,40.283,M,1.0,1673*48
$GPGGA,084339.00,5939.93741048,N,01029.20744087,E,4,27,0.7,184.346,M,40.283,M,1.0,1673*41
$GPGGA,084340.00,5939.93741411,N,01029.20744074,E,4,27,0.7,184.350,M,40.283,M,1.0,1673*4C
$GPGGA,084341.00,5939.93741571,N,01029.20744236,E,4,26,0.7,184.355,M,40.283,M,1.0,1673*4A
$GPGGA,084342.00,5939.93741451,N,01029.20744199,E,4,26,0.7,184.358,M,40.283,M,1.0,1673*41
$GPGGA,084343.00,5939.93741355,N,01029.20744357,E,4,26,0.7,184.356,M,40.283,M,1.0,1673*4D
$GPGGA,084344.00,5939.93741178,N,01029.20744210,E,4,26,0.7,184.348,M,40.283,M,1.0,1673*4A
$GPGGA,084345.00,5939.93741340,N,01029.20744257,E,4,27,0.7,184.353,M,40.283,M,1.0,1673*4A
$GPGGA,084346.00,5939.93741379,N,01029.20744426,E,4,27,0.7,184.359,M,40.283,M,1.0,1673*49
$GPGGA,084347.00,5939.93741352,N,01029.20744284,E,4,27,0.7,184.358,M,40.283,M,1.0,1673*4E
$GPGGA,084348.00,5939.93741349,N,01029.20744353,E,4,27,0.7,184.359,M,40.283,M,1.0,1673*41
$GPGGA,084349.00,5939.93741466,N,01029.20744333,E,4,27,0.7,184.362,M,40.283,M,1.0,1673*44
$GPGGA,084350.00,5939.93741532,N,01029.20744376,E,4,28,0.7,184.358,M,40.283,M,1.0,1673*4B
$GPGGA,084351.00,5939.93741252,N,01029.20744396,E,4,27,0.7,184.355,M,40.283,M,1.0,1673*47
$GPGGA,084352.00,5939.93745947,N,01029.20742159,E,5,27,0.7,184.675,M,40.283,M,1.0,1673*4E
$GPGGA,084353.00,5939.93745818,N,01029.20742086,E,5,27,0.7,184.679,M,40.283,M,1.0,1673*4B
$GPGGA,084354.00,5939.93745712,N,01029.20742162,E,5,26,0.7,184.694,M,40.283,M,1.0,1673*40
$GPGGA,084355.00,5939.93745474,N,01029.20742180,E,5,26,0.7,184.687,M,40.283,M,2.0,1673*4F
$GPGGA,084356.00,5939.93745662,N,01029.20742026,E,5,25,0.7,184.689,M,40.283,M,1.0,1673*4A
$GPGGA,084357.00,5939.93745690,N,01029.20741872,E,5,25,0.7,184.685,M,40.283,M,1.0,1673*40
$GPGGA,084358.00,5939.93745572,N,01029.20741994,E,5,25,0.7,184.688,M,40.283,M,1.0,1673*44
$GPGGA,084359.00,5939.93745503,N,01029.20742179,E,5,25,0.7,184.693,M,40.283,M,1.0,1673*41
$GPGGA,084400.00,5939.93745720,N,01029.20742136,E,5,26,0.7,184.693,M,40.283,M,1.0,1673*41
$GPGGA,084401.00,5939.93745660,N,01029.20741865,E,5,26,0.7,184.680,M,40.283,M,1.0,1673*4B
$GPGGA,084402.00,5939.93745644,N,01029.20742238,E,5,25,0.7,184.686,M,40.283,M,1.0,1673*4A
$GPGGA,084403.00,5939.93745707,N,01029.20742479,E,5,25,0.7,184.688,M,40.283,M,1.0,1673*40
$GPGGA,084404.00,5939.93745796,N,01029.20741958,E,5,25,0.7,184.689,M,40.283,M,1.0,1673*43
$GPGGA,084405.00,5939.93745610,N,01029.20742053,E,5,25,0.7,184.686,M,40.283,M,1.0,1673*43
$GPGGA,084406.00,5939.93745796,N,01029.20742024,E,5,25,0.7,184.680,M,40.283,M,1.0,1673*49
$GPGGA,084407.00,5939.93745789,N,01029.20741947,E,5,25,0.7,184.687,M,40.283,M,1.0,1673*4E
$GPGGA,084408.00,5939.93745616,N,01029.20742146,E,5,25,0.7,184.689,M,40.283,M,1.0,1673*42
$GPGGA,084409.00,5939.93745707,N,01029.20742118,E,5,25,0.7,184.683,M,40.283,M,1.0,1673*43
$GPGGA,084410.00,5939.93745768,N,01029.20741949,E,5,26,0.7,184.689,M,40.283,M,2.0,1673*47
$GPGGA,084411.00,5939.93745682,N,01029.20742217,E,5,26,0.7,184.695,M,40.283,M,1.0,1673*4E
$GPGGA,084412.00,5939.93745615,N,01029.20742151,E,5,26,0.7,184.689,M,40.283,M,1.0,1673*4F
$GPGGA,084413.00,5939.93745690,N,01029.20742485,E,5,26,0.7,184.697,M,40.283,M,1.0,1673*40
$GPGGA,084414.00,5939.93745726,N,01029.20742364,E,5,26,0.7,184.697,M,40.283,M,1.0,1673*43
$GPGGA,084415.00,5939.93745600,N,01029.20742420,E,5,26,0.7,184.698,M,40.283,M,1.0,1673*4F
$GPGGA,084416.00,5939.93745603,N,01029.20742551,E,5,28,0.7,184.700,M,40.283,M,1.0,1673*46
$GPGGA,084417.00,5939.93745701,N,01029.20742449,E,5,28,0.7,184.703,M,40.283,M,1.0,1673*4F
$GPGGA,084418.00,5939.93742178,N,01029.20743199,E,5,28,0.7,184.443,M,40.283,M,1.0,1673*41
$GPGGA,084419.00,5939.93742862,N,01029.20743412,E,5,28,0.7,184.469,M,40.283,M,1.0,1673*4C
$GPGGA,084420.00,5939.93743189,N,01029.20743345,E,5,28,0.7,184.483,M,40.283,M,1.0,1673*4A
$GPGGA,084421.00,5939.93743322,N,01029.20743701,E,5,28,0.7,184.491,M,40.283,M,1.0,1673*4F
$GPGGA,084422.00,5939.93742725,N,01029.20743467,E,5,28,0.7,184.489,M,40.283,M,1.0,1673*44
$GPGGA,084423.00,5939.93742504,N,01029.20743361,E,5,24,0.7,184.448,M,40.283,M,1.0,1673*44
$GPGGA,084424.00,5939.93745627,N,01029.20741331,E,5,27,0.7,184.664,M,40.283,M,1.0,1673*4E
$GPGGA,084425.00,5939.93745986,N,01029.20741467,E,5,26,0.7,184.686,M,40.283,M,1.0,1673*42
$GPGGA,084426.00,5939.93745310,N,01029.20741267,E,5,26,0.7,184.683,M,40.283,M,1.0,1673*47
$GPGGA,084427.00,5939.93745641,N,01029.20742039,E,5,26,0.7,184.666,M,40.283,M,1.0,1673*46
$GPGGA,084428.00,5939.93745528,N,01029.20741886,E,5,25,0.7,184.661,M,40.283,M,1.0,1673*4E
$GPGGA,084429.00,5939.93745393,N,01029.20741318,E,5,25,0.7,184.647,M,40.283,M,1.0,1673*41
$GPGGA,084430.00,5939.93745629,N,01029.20741222,E,5,25,0.7,184.655,M,40.283,M,1.0,1673*46
$GPGGA,084431.00,5939.93745746,N,01029.20741276,E,5,25,0.7,184.649,M,40.283,M,1.0,1673*43
$GPGGA,084432.00,5939.93745677,N,01029.20741531,E,5,25,0.7,184.656,M,40.283,M,1.0,1673*49
$GPGGA,084433.00,5939.93745709,N,01029.20741520,E,5,25,0.7,184.656,M,40.283,M,1.0,1673*40
$GPGGA,084434.00,5939.93745694,N,01029.20741389,E,5,21,0.7,184.659,M,40.283,M,1.0,1673*4C
$GPGGA,084435.00,5939.93745710,N,01029.20741707,E,5,23,0.7,184.659,M,40.283,M,1.0,1673*40
$GPGGA,084436.00,5939.93745876,N,01029.20741670,E,5,24,0.7,184.653,M,40.283,M,1.0,1673*40
$GPGGA,084437.00,5939.93745878,N,01029.20741897,E,5,23,0.7,184.662,M,40.283,M,1.0,1673*4D
$GPGGA,084438.00,5939.93745720,N,01029.20741906,E,5,23,0.7,184.663,M,40.283,M,1.0,1673*48
$GPGGA,084439.00,5939.93743581,N,01029.20742955,E,5,22,0.7,184.530,M,40.283,M,1.0,1673*47
$GPGGA,084440.00,5939.93743520,N,01029.20742812,E,5,25,0.7,184.526,M,40.283,M,1.0,1673*40
$GPGGA,084441.00,5939.93743671,N,01029.20742920,E,5,26,0.7,184.528,M,40.283,M,1.0,1673*4B
$GPGGA,084442.00,5939.93743601,N,01029.20743197,E,5,26,0.7,184.510,M,40.283,M,1.0,1673*41
$GPGGA,084443.00,5939.93745461,N,01029.20741599,E,5,25,0.7,184.659,M,40.283,M,1.0,1673*47
$GPGGA,084444.00,5939.93745879,N,01029.20741888,E,5,26,0.7,184.664,M,40.283,M,1.0,1673*45
$GPGGA,084445.00,5939.93745517,N,01029.20741706,E,5,27,0.7,184.670,M,40.283,M,1.0,1673*4C
$GPGGA,084446.00,5939.93745273,N,01029.20740999,E,5,27,0.7,184.678,M,40.283,M,1.0,1673*4B
$GPGGA,084447.00,5939.93745323,N,01029.20741344,E,5,27,0.7,184.677,M,40.283,M,1.0,1673*4A
$GPGGA,084448.00,5939.93743767,N,01029.20742681,E,5,26,0.7,184.533,M,40.283,M,1.0,1673*4A
$GPGGA,084449.00,5939.93743578,N,01029.20742591,E,5,26,0.7,184.537,M,40.283,M,1.0,1673*41
$GPGGA,084450.00,5939.93743642,N,01029.20742977,E,5,26,0.7,184.540,M,40.283,M,1.0,1673*47
$GPGGA,084451.00,5939.93743369,N,01029.20743010,E,5,26,0.7,184.512,M,40.283,M,1.0,1673*44
$GPGGA,084452.00,5939.93743201,N,01029.20743192,E,5,26,0.7,184.507,M,40.283,M,1.0,1673*47
$GPGGA,084453.00,5939.93743136,N,01029.20743250,E,5,26,0.7,184.494,M,40.283,M,1.0,1673*47
$GPGGA,084454.00,5939.93742954,N,01029.20742578,E,5,26,0.7,184.499,M,40.283,M,1.0,1673*4C
$GPGGA,084455.00,5939.93742667,N,01029.20742515,E,5,26,0.7,184.490,M,40.283,M,1.0,1673*40
$GPGGA,084456.00,5939.93742433,N,01029.20742294,E,5,26,0.7,184.505,M,40.283,M,1.0,1673*43
$GPGGA,084457.00,5939.93743009,N,01029.20742475,E,5,26,0.7,184.520,M,40.283,M,1.0,1673*40
$GPGGA,084458.00,5939.93742575,N,01029.20742547,E,5,26,0.7,184.492,M,40.283,M,1.0,1673*48
$GPGGA,084459.00,5939.93742577,N,01029.20742652,E,5,26,0.7,184.505,M,40.283,M,1.0,1673*43
$GPGGA,084500.00,5939.93742685,N,01029.20742361,E,5,27,0.7,184.497,M,40.283,M,1.0,1673*4E
$GPGGA,084501.00,5939.93742665,N,01029.20742217,E,4,26,0.7,184.501,M,40.283,M,1.0,1673*4F
$GPGGA,084502.00,5939.93742486,N,01029.20742605,E,4,26,0.6,184.492,M,40.283,M,1.0,1673*4E
$GPGGA,084503.00,5939.93742738,N,01029.20742415,E,4,27,0.6,184.504,M,40.283,M,1.0,1673*45
$GPGGA,084504.00,5939.93742939,N,01029.20742477,E,4,27,0.6,184.506,M,40.283,M,1.0,1673*4B
$GPGGA,084505.00,5939.93742976,N,01029.20742862,E,4,27,0.6,184.504,M,40.283,M,1.0,1673*4B
$GPGGA,084506.00,5939.93743050,N,01029.20742761,E,4,26,0.6,184.498,M,40.283,M,1.0,1673*4D
$GPGGA,084507.00,5939.93742893,N,01029.20742756,E,4,26,0.6,184.491,M,40.283,M,1.0,1673*47
$GPGGA,084508.00,5939.93740958,N,01029.20743577,E,4,26,0.6,184.365,M,40.283,M,1.0,1673*40
$GPGGA,084509.00,5939.93742705,N,01029.20742709,E,4,26,0.6,184.497,M,40.283,M,1.0,1673*45
$GPGGA,084510.00,5939.93742301,N,01029.20742315,E,4,26,0.6,184.487,M,40.283,M,1.0,1673*45
$GPGGA,084511.00,5939.93742344,N,01029.20742480,E,4,27,0.6,184.466,M,40.283,M,1.0,1673*40
$GPGGA,084512.00,5939.93742541,N,01029.20742970,E,4,26,0.7,184.464,M,40.283,M,1.0,1673*40
$GPGGA,084513.00,5939.93742244,N,01029.20743061,E,4,26,0.7,184.449,M,40.283,M,1.0,1673*44
$GPGGA,084514.00,5939.93742634,N,01029.20743014,E,4,25,0.7,184.455,M,40.283,M,1.0,1673*4C
$GPGGA,084515.00,5939.93742348,N,01029.20743043,E,4,26,0.7,184.447,M,40.283,M,1.0,1673*41
$GPGGA,084516.00,5939.93742050,N,01029.20742971,E,4,25,0.7,184.429,M,40.283,M,1.0,1673*4A
$GPGGA,084517.00,5939.93742383,N,01029.20743431,E,4,25,0.7,184.417,M,40.283,M,1.0,1673*43
$GPGGA,084518.00,5939.93741668,N,01029.20744381,E,4,25,0.7,184.368,M,40.283,M,1.0,1673*4B
$GPGGA,084519.00,5939.93741462,N,01029.20744138,E,4,25,0.7,184.360,M,40.283,M,1.0,1673*4A
$GPGGA,084520.00,5939.93742018,N,01029.20744286,E,4,27,0.7,184.369,M,40.283,M,1.0,1673*47
$GPGGA,084521.00,5939.93742050,N,01029.20745762,E,4,26,0.7,184.359,M,40.283,M,1.0,1673*46
$GPGGA,084522.00,5939.93741755,N,01029.20745888,E,4,27,0.7,184.354,M,40.283,M,1.0,1673*43
$GPGGA,084523.00,5939.93741410,N,01029.20744641,E,4,26,0.7,184.354,M,40.283,M,1.0,1673*4B
$GPGGA,084524.00,5939.93741073,N,01029.20744268,E,4,26,0.7,184.345,M,40.283,M,1.0,1673*42
$GPGGA,084525.00,5939.93741193,N,01029.20744010,E,4,26,0.7,184.357,M,40.283,M,1.0,1673*42
$GPGGA,084526.00,5939.93741165,N,01029.20743901,E,4,26,0.7,184.373,M,40.283,M,1.0,1673*40
$GPGGA,084527.00,5939.93740949,N,01029.20744154,E,4,26,0.7,184.363,M,40.283,M,1.0,1673*48
$GPGGA,084528.00,5939.93740991,N,01029.20743990,E,4,26,0.7,184.359,M,40.283,M,1.0,1673*4C
$GPGGA,084529.00,5939.93741322,N,01029.20744445,E,4,27,0.7,184.357,M,40.283,M,1.0,1673*43
$GPGGA,084530.00,5939.93741263,N,01029.20744154,E,4,27,0.7,184.357,M,40.283,M,1.0,1673*4A
$GPGGA,084531.00,5939.93741099,N,01029.20744576,E,4,26,0.7,184.361,M,40.283,M,1.0,1673*4C
$GPGGA,084532.00,5939.93741252,N,01029.20744392,E,4,26,0.7,184.368,M,40.283,M,1.0,1673*4F
$GPGGA,084533.00,5939.93741309,N,01029.20744220,E,4,25,0.7,184.365,M,40.283,M,1.0,1673*47
$GPGGA,084534.00,5939.93741279,N,01029.20744208,E,4,25,0.7,184.362,M,40.283,M,1.0,1673*4B
$GPGGA,084535.00,5939.93741478,N,01029.20744157,E,4,26,0.7,184.365,M,40.283,M,1.0,1673*40
$GPGGA,084536.00,5939.93741076,N,01029.20744497,E,4,26,0.7,184.365,M,40.283,M,1.0,1673*40
$GPGGA,084537.00,5939.93741133,N,01029.20744146,E,4,26,0.7,184.363,M,40.283,M,1.0,1673*4E
$GPGGA,084538.00,5939.93741303,N,01029.20743734,E,4,26,0.7,184.362,M,40.283,M,1.0,1673*45
$GPGGA,084539.00,5939.93741376,N,01029.20744131,E,4,25,0.7,184.368,M,40.283,M,1.0,1673*4B
$GPGGA,084540.00,5939.93741180,N,01029.20744046,E,4,26,0.7,184.355,M,40.283,M,1.0,1673*42
$GPGGA,084541.00,5939.93741169,N,01029.20744181,E,4,26,0.7,184.365,M,40.283,M,1.0,1673*4D
$GPGGA,084542.00,5939.93741085,N,01029.20744099,E,4,27,0.7,184.368,M,40.283,M,2.0,1673*4A
$GPGGA,084543.00,5939.93741262,N,01029.20744274,E,4,27,0.7,184.360,M,40.283,M,1.0,1673*4A
$GPGGA,084544.00,5939.93741091,N,01029.20743542,E,4,27,0.7,184.380,M,40.283,M,1.0,1673*48
$GPGGA,084545.00,5939.93741113,N,01029.20743574,E,4,27,0.7,184.370,M,40.283,M,1.0,1673*48
$GPGGA,084546.00,5939.93740780,N,01029.20743958,E,4,28,0.7,184.355,M,40.283,M,1.0,1673*4C
$GPGGA,084547.00,5939.93741191,N,01029.20743617,E,4,27,0.7,184.372,M,40.283,M,1.0,1673*44
$GPGGA,084548.00,5939.93741271,N,01029.20743612,E,4,28,0.7,184.374,M,40.283,M,1.0,1673*4A
$GPGGA,084549.00,5939.93741179,N,01029.20744052,E,4,27,0.7,184.359,M,40.283,M,1.0,1673*45
$GPGGA,084550.00,5939.93741241,N,01029.20744696,E,4,27,0.7,184.369,M,40.283,M,1.0,1673*48
$GPGGA,084551.00,5939.93741242,N,01029.20744724,E,4,27,0.7,184.365,M,40.283,M,1.0,1673*4E
$GPGGA,084552.00,5939.93743929,N,01029.20743484,E,4,25,0.7,184.540,M,40.283,M,1.0,1673*44
$GPGGA,084553.00,5939.93743833,N,01029.20743816,E,4,25,0.7,184.529,M,40.283,M,1.0,1673*47
$GPGGA,084554.00,5939.93743495,N,01029.20743489,E,4,25,0.7,184.520,M,40.283,M,1.0,1673*43
$GPGGA,084555.00,5939.93743563,N,01029.20743671,E,4,25,0.7,184.523,M,40.283,M,1.0,1673*4C
$GPGGA,084556.00,5939.93743457,N,01029.20743469,E,4,27,0.7,184.509,M,40.283,M,1.0,1673*48
$GPGGA,084557.00,5939.93741386,N,01029.20743630,E,4,27,0.7,184.365,M,40.283,M,1.0,1673*42
$GPGGA,084558.00,5939.93741523,N,01029.20743219,E,4,26,0.7,184.381,M,40.283,M,1.0,1673*40
$GPGGA,084559.00,5939.93741544,N,01029.20743661,E,4,25,0.7,184.372,M,40.283,M,1.0,1673*44
$GPGGA,084600.00,5939.93741675,N,01029.20743553,E,4,25,0.7,184.382,M,40.283,M,1.0,1673*47
$GPGGA,084601.00,5939.93741131,N,01029.20744181,E,4,25,0.7,184.339,M,40.283,M,1.0,1673*4D
$GPGGA,084602.00,5939.93741481,N,01029.20743993,E,4,25,0.7,184.347,M,40.283,M,1.0,1673*45
$GPGGA,084603.00,5939.93741288,N,01029.20743575,E,4,26,0.7,184.351,M,40.283,M,1.0,1673*4B
$GPGGA,084604.00,5939.93741101,N,01029.20743970,E,4,26,0.7,184.346,M,40.283,M,2.0,1673*42
$GPGGA,084605.00,5939.93741201,N,01029.20743814,E,4,25,0.7,184.360,M,40.283,M,3.0,1673*45
$GPGGA,084606.00,5939.93741260,N,01029.20744223,E,4,26,0.7,184.366,M,40.283,M,2.0,1673*4C
$GPGGA,084607.00,5939.93741289,N,01029.20743452,E,4,26,0.7,184.344,M,40.283,M,1.0,1673*4E
$GPGGA,084608.00,5939.93740640,N,01029.20742862,E,4,26,0.7,184.403,M,40.283,M,1.0,1673*4B
$GPGGA,084609.00,5939.93740560,N,01029.20742818,E,4,25,0.7,184.409,M,40.283,M,1.0,1673*4F
$GPGGA,084610.00,5939.93740832,N,01029.20742577,E,4,27,0.7,184.408,M,40.283,M,1.0,1673*4A
$GPGGA,084611.00,5939.93740926,N,01029.20742633,E,4,27,0.7,184.390,M,40.283,M,1.0,1673*4A
$GPGGA,084612.00,5939.93740705,N,01029.20742538,E,4,27,0.7,184.390,M,40.283,M,1.0,1673*4E
$GPGGA,084613.00,5939.93740761,N,01029.20742733,E,4,28,0.7,184.392,M,40.283,M,1.0,1673*49
$GPGGA,084614.00,5939.93740631,N,01029.20742822,E,4,28,0.7,184.396,M,40.283,M,1.0,1673*41
$GPGGA,084615.00,5939.93740502,N,01029.20742816,E,4,28,0.7,184.378,M,40.283,M,1.0,1673*44
$GPGGA,084616.00,5939.93740671,N,01029.20742932,E,4,27,0.7,184.383,M,40.283,M,1.0,1673*4C
$GPGGA,084617.00,5939.93740669,N,01029.20742711,E,4,27,0.7,184.383,M,40.283,M,2.0,1673*48
$GPGGA,084618.00,5939.93740558,N,01029.20742844,E,4,27,0.7,184.379,M,40.283,M,3.0,1673*4D
$GPGGA,084619.00,5939.93740801,N,01029.20742506,E,4,27,0.7,184.372,M,40.283,M,1.0,1673*4F
$GPGGA,084620.00,5939.93740918,N,01029.20742582,E,4,26,0.7,184.372,M,40.283,M,2.0,1673*42
$GPGGA,084621.00,5939.93740755,N,01029.20742747,E,4,26,0.7,184.373,M,40.283,M,3.0,1673*4F
$GPGGA,084622.00,5939.93740569,N,01029.20742821,E,4,26,0.7,184.376,M,40.283,M,2.0,1673*4A
$GPGGA,084623.00,5939.93740995,N,01029.20742561,E,4,26,0.7,184.387,M,40.283,M,1.0,1673*40
$GPGGA,084624.00,5939.93740938,N,01029.20743655,E,4,25,0.7,184.375,M,40.283,M,1.0,1673*4B
$GPGGA,084625.00,5939.93740855,N,01029.20743389,E,4,25,0.7,184.354,M,40.283,M,1.0,1673*47
$GPGGA,084626.00,5939.93740748,N,01029.20743179,E,4,25,0.7,184.360,M,40.283,M,1.0,1673*4D
$GPGGA,084627.00,5939.93740626,N,01029.20743283,E,4,25,0.7,184.361,M,40.283,M,1.0,1673*42
$GPGGA,084628.00,5939.93740120,N,01029.20742279,E,4,26,0.7,184.378,M,40.283,M,1.0,1673*43
$GPGGA,084629.00,5939.93741025,N,01029.20742079,E,4,26,0.7,184.395,M,40.283,M,1.0,1673*46
$GPGGA,084630.00,5939.93739873,N,01029.20742757,E,4,26,0.7,184.363,M,40.283,M,1.0,1673*48
$GPGGA,084631.00,5939.93740017,N,01029.20741382,E,4,23,0.7,184.325,M,40.283,M,1.0,1673*45
$GPGGA,084632.00,5939.93740282,N,01029.20743093,E,4,23,0.7,184.164,M,40.283,M,1.0,1673*4E
$GPGGA,084633.00,5939.93740291,N,01029.20743283,E,4,23,0.7,184.166,M,40.283,M,2.0,1673*4F
$GPGGA,084634.00,5939.93740290,N,01029.20742736,E,4,23,0.7,184.183,M,40.283,M,2.0,1673*48
$GPGGA,084635.00,5939.93740167,N,01029.20742706,E,4,23,0.7,184.190,M,40.283,M,2.0,1673*43
$GPGGA,084636.00,5939.93740130,N,01029.20742292,E,4,24,0.7,184.192,M,40.283,M,1.0,1673*4C
$GPGGA,084637.00,5939.93740352,N,01029.20742405,E,4,25,0.7,184.193,M,40.283,M,1.0,1673*43
$GPGGA,084638.00,5939.93740078,N,01029.20742460,E,4,25,0.7,184.198,M,40.283,M,1.0,1673*4F
$GPGGA,084639.00,5939.93740220,N,01029.20742147,E,4,24,0.7,184.196,M,40.283,M,1.0,1673*4E
$GPGGA,084640.00,5939.93740161,N,01029.20742399,E,4,25,0.7,184.186,M,40.283,M,1.0,1673*47
$GPGGA,084641.00,5939.93740173,N,01029.20742456,E,4,25,0.7,184.191,M,40.283,M,1.0,1673*47
$GPGGA,084642.00,5939.93740453,N,01029.20742100,E,4,25,0.7,184.196,M,40.283,M,1.0,1673*42
$GPGGA,084643.00,5939.93740278,N,01029.20742360,E,4,25,0.7,184.194,M,40.283,M,1.0,1673*4A
$GPGGA,084644.00,5939.93740275,N,01029.20742617,E,4,24,0.7,184.191,M,40.283,M,1.0,1673*41
$GPGGA,084645.00,5939.93740278,N,01029.20742343,E,4,25,0.7,184.196,M,40.283,M,1.0,1673*4F
$GPGGA,084646.00,5939.93739970,N,01029.20742446,E,4,26,0.7,184.189,M,40.283,M,1.0,1673*4E
$GPGGA,084647.00,5939.93740997,N,01029.20742780,E,5,26,0.7,184.300,M,40.283,M,1.0,1673*43
$GPGGA,084648.00,5939.93741709,N,01029.20742476,E,5,26,0.7,184.355,M,40.283,M,1.0,1673*4E
$GPGGA,084649.00,5939.93741514,N,01029.20742203,E,5,25,0.7,184.298,M,40.283,M,1.0,1673*46
$GPGGA,084650.00,5939.93741390,N,01029.20742285,E,5,25,0.7,184.279,M,40.283,M,1.0,1673*45
$GPGGA,084651.00,5939.93741950,N,01029.20742010,E,5,25,0.7,184.359,M,40.283,M,1.0,1673*4F
$GPGGA,084652.00,5939.93741236,N,01029.20742379,E,5,26,0.7,184.268,M,40.283,M,1.0,1673*4B
$GPGGA,084653.00,5939.93740846,N,01029.20742306,E,5,26,0.7,184.259,M,40.283,M,1.0,1673*4C
$GPGGA,084654.00,5939.93740796,N,01029.20742284,E,5,25,0.7,184.264,M,40.283,M,1.0,1673*4F
$GPGGA,084655.00,5939.93741334,N,01029.20742265,E,5,25,0.7,184.353,M,40.283,M,1.0,1673*49
$GPGGA,084656.00,5939.93741450,N,01029.20742318,E,5,25,0.7,184.349,M,40.283,M,1.0,1673*4F
$GPGGA,084657.00,5939.93741533,N,01029.20742185,E,5,24,0.7,184.349,M,40.283,M,1.0,1673*4D
$GPGGA,084658.00,5939.93741448,N,01029.20742364,E,5,25,0.7,184.357,M,40.283,M,1.0,1673*4C
$GPGGA,084659.00,5939.93741121,N,01029.20742402,E,5,26,0.7,184.347,M,40.283,M,1.0,1673*42
$GPGGA,084700.00,5939.93741302,N,01029.20742311,E,5,26,0.7,184.347,M,40.283,M,1.0,1673*49
$GPGGA,084701.00,5939.93741157,N,01029.20742401,E,5,27,0.7,184.341,M,40.283,M,1.0,1673*4B
$GPGGA,084702.00,5939.93741207,N,01029.20743042,E,5,27,0.7,184.322,M,40.283,M,1.0,1673*49
$GPGGA,084703.00,5939.93741157,N,01029.20742344,E,5,27,0.7,184.338,M,40.283,M,1.0,1673*41
$GPGGA,084704.00,5939.93741048,N,01029.20743048,E,5,25,0.7,184.342,M,40.283,M,1.0,1673*48
$GPGGA,084705.00,5939.93740797,N,01029.20742356,E,4,24,0.7,184.358,M,40.283,M,1.0,1673*4B
$GPGGA,084706.00,5939.93740655,N,01029.20742240,E,4,23,0.7,184.366,M,40.283,M,1.0,1673*4B
$GPGGA,084707.00,5939.93740818,N,01029.20742447,E,4,24,0.7,184.375,M,40.283,M,1.0,1673*49
$GPGGA,084708.00,5939.93740542,N,01029.20742550,E,4,24,0.7,184.370,M,40.283,M,1.0,1673*46
$GPGGA,084709.00,5939.93740930,N,01029.20742133,E,4,25,0.7,184.347,M,40.283,M,1.0,1673*4A
$GPGGA,084710.00,5939.93740992,N,01029.20742055,E,4,27,0.7,184.375,M,40.283,M,1.0,1673*48
$GPGGA,084711.00,5939.93740784,N,01029.20742211,E,4,26,0.7,184.351,M,40.283,M,1.0,1673*45
$GPGGA,084712.00,5939.93741032,N,01029.20742132,E,4,25,0.7,184.367,M,40.283,M,1.0,1673*49
$GPGGA,084713.00,5939.93740874,N,01029.20742278,E,4,26,0.7,184.352,M,40.283,M,1.0,1673*4B
$GPGGA,084714.00,5939.93741020,N,01029.20742304,E,4,26,0.7,184.356,M,40.283,M,1.0,1673*4A
$GPGGA,084715.00,5939.93740786,N,01029.20742437,E,4,26,0.7,184.346,M,40.283,M,1.0,1673*47
$GPGGA,084716.00,5939.93740800,N,01029.20742198,E,4,26,0.7,184.345,M,40.283,M,1.0,1673*46
$GPGGA,084717.00,5939.93741202,N,01029.20742311,E,4,26,0.7,184.359,M,40.283,M,1.0,1673*40
$GPGGA,084718.00,5939.93741039,N,01029.20742379,E,4,26,0.7,184.351,M,40.283,M,1.0,1673*43
$GPGGA,084719.00,5939.93741030,N,01029.20742239,E,4,25,0.7,184.355,M,40.283,M,1.0,1673*49
$GPGGA,084720.00,5939.93740734,N,01029.20742369,E,4,25,0.7,184.347,M,40.283,M,1.0,1673*46
$GPGGA,084721.00,5939.93741043,N,01029.20742080,E,4,25,0.7,184.353,M,40.283,M,1.0,1673*40
$GPGGA,084722.00,5939.93741088,N,01029.20742155,E,4,25,0.7,184.355,M,40.283,M,1.0,1673*4B
$GPGGA,084723.00,5939.93741165,N,01029.20742133,E,4,26,0.7,184.351,M,40.283,M,1.0,1673*4F
$GPGGA,084724.00,5939.93740929,N,01029.20742385,E,4,26,0.7,184.346,M,40.283,M,1.0,1673*40
$GPGGA,084725.00,5939.93741379,N,01029.20742235,E,4,26,0.7,184.344,M,40.283,M,1.0,1673*47
$GPGGA,084726.00,5939.93741511,N,01029.20742456,E,4,25,0.7,184.351,M,40.283,M,1.0,1673*48
$GPGGA,084727.00,5939.93741185,N,01029.20741766,E,4,25,0.7,184.373,M,40.283,M,1.0,1673*43
$GPGGA,084728.00,5939.93741021,N,01029.20741490,E,4,24,0.7,184.368,M,40.283,M,2.0,1673*41
$GPGGA,084729.00,5939.93741073,N,01029.20742740,E,4,23,0.7,184.340,M,40.283,M,1.0,1673*44
$GPGGA,084730.00,5939.93741032,N,01029.20742412,E,4,21,0.8,184.324,M,40.283,M,1.0,1673*42
$GPGGA,084731.00,5939.93741008,N,01029.20742109,E,4,21,0.8,184.343,M,40.283,M,1.0,1673*44
$GPGGA,084732.00,5939.93741255,N,01029.20742160,E,4,22,0.8,184.360,M,40.283,M,1.0,1673*40
$GPGGA,084733.00,5939.93741316,N,01029.20741872,E,4,22,0.8,184.370,M,40.283,M,1.0,1673*4F
$GPGGA,084734.00,5939.93741390,N,01029.20741991,E,4,22,0.8,184.359,M,40.283,M,1.0,1673*41
$GPGGA,084735.00,5939.93741521,N,01029.20742369,E,4,21,0.8,184.353,M,40.283,M,1.0,1673*4B
$GPGGA,084736.00,5939.93741369,N,01029.20742133,E,4,21,0.8,184.351,M,40.283,M,1.0,1673*4D
$GPGGA,084737.00,5939.93741436,N,01029.20741892,E,4,22,0.8,184.368,M,40.283,M,1.0,1673*49
$GPGGA,084738.00,5939.93741753,N,01029.20742051,E,4,23,0.8,184.362,M,40.283,M,1.0,1673*49
$GPGGA,084739.00,5939.93741668,N,01029.20741819,E,4,23,0.8,184.379,M,40.283,M,1.0,1673*4C
$GPGGA,084740.00,5939.93741323,N,01029.20742010,E,4,23,0.8,184.359,M,40.283,M,1.0,1673*48
$GPGGA,084741.00,5939.93741777,N,01029.20741777,E,4,24,0.8,184.368,M,40.283,M,1.0,1673*4C
$GPGGA,084742.00,5939.93741816,N,01029.20741549,E,4,23,0.8,184.377,M,40.283,M,1.0,1673*41
$GPGGA,084743.00,5939.93741369,N,01029.20742533,E,4,24,0.8,184.351,M,40.283,M,1.0,1673*4E
$GPGGA,084744.00,5939.93741074,N,01029.20742798,E,4,24,0.8,184.327,M,40.283,M,1.0,1673*44
$GPGGA,084745.00,5939.93741150,N,01029.20742851,E,4,24,0.8,184.341,M,40.283,M,1.0,1673*48
$GPGGA,084746.00,5939.93741474,N,01029.20742357,E,4,24,0.8,184.348,M,40.283,M,1.0,1673*4C
$GPGGA,084747.00,5939.93741631,N,01029.20742281,E,4,24,0.8,184.346,M,40.283,M,1.0,1673*4A
$GPGGA,084748.00,5939.93741601,N,01029.20742438,E,4,24,0.8,184.349,M,40.283,M,1.0,1673*4D
$GPGGA,084749.00,5939.93741255,N,01029.20742066,E,4,23,0.8,184.342,M,40.283,M,1.0,1673*4A
$GPGGA,084750.00,5939.93741306,N,01029.20742528,E,4,25,0.7,184.333,M,40.283,M,1.0,1673*45
$GPGGA,084751.00,5939.93741384,N,01029.20742456,E,4,25,0.7,184.349,M,40.283,M,1.0,1673*4B
$GPGGA,084752.00,5939.93741519,N,01029.20742140,E,4,25,0.7,184.358,M,40.283,M,1.0,1673*48
$GPGGA,084753.00,5939.93741474,N,01029.20742454,E,4,25,0.7,184.353,M,40.283,M,1.0,1673*48
$GPGGA,084754.00,5939.93741435,N,01029.20742429,E,4,25,0.7,184.349,M,40.283,M,1.0,1673*4B
$GPGGA,084755.00,5939.93741316,N,01029.20742472,E,4,26,0.7,184.352,M,40.283,M,1.0,1673*4B
$GPGGA,084756.00,5939.93741538,N,01029.20742535,E,4,25,0.7,184.363,M,40.283,M,1.0,1673*41
$GPGGA,084757.00,5939.93741717,N,01029.20742582,E,4,26,0.7,184.348,M,40.283,M,1.0,1673*49
$GPGGA,084758.00,5939.93741680,N,01029.20742020,E,4,26,0.7,184.361,M,40.283,M,1.0,1673*4F
$GPGGA,084759.00,5939.93741565,N,01029.20742312,E,4,25,0.7,184.363,M,40.283,M,1.0,1673*45
$GPGGA,084800.00,5939.93741124,N,01029.20742857,E,4,26,0.7,184.355,M,40.283,M,1.0,1673*4B
$GPGGA,084801.00,5939.93741033,N,01029.20742454,E,4,26,0.7,184.346,M,40.283,M,1.0,1673*40
$GPGGA,084802.00,5939.93740849,N,01029.20742536,E,4,26,0.6,184.348,M,40.283,M,1.0,1673*4D
$GPGGA,084803.00,5939.93741267,N,01029.20742487,E,4,26,0.6,184.341,M,40.283,M,1.0,1673*49
$GPGGA,084804.00,5939.93740802,N,01029.20742153,E,4,26,0.6,184.324,M,40.283,M,1.0,1673*49
$GPGGA,084805.00,5939.93741864,N,01029.20742619,E,4,26,0.6,184.363,M,40.283,M,1.0,1673*43
$GPGGA,084806.00,5939.93741675,N,01029.20742877,E,4,26,0.6,184.352,M,40.283,M,1.0,1673*4A
$GPGGA,084807.00,5939.93740812,N,01029.20742026,E,4,25,0.6,184.307,M,40.283,M,1.0,1673*4A
$GPGGA,084808.00,5939.93741053,N,01029.20742390,E,4,24,0.6,184.320,M,40.283,M,1.0,1673*43
$GPGGA,084809.00,5939.93740869,N,01029.20741897,E,4,23,0.7,184.304,M,40.283,M,1.0,1673*4D
$GPGGA,084810.00,5939.93741443,N,01029.20742039,E,4,23,0.7,184.331,M,40.283,M,1.0,1673*49
$GPGGA,084811.00,5939.93741068,N,01029.20741706,E,4,23,0.7,184.312,M,40.283,M,1.0,1673*4C
$GPGGA,084812.00,5939.93741064,N,01029.20742215,E,4,24,0.7,184.325,M,40.283,M,1.0,1673*44
$GPGGA,084813.00,5939.93741324,N,01029.20742254,E,4,23,0.7,184.316,M,40.283,M,1.0,1673*40
$GPGGA,084814.00,5939.93740958,N,01029.20742879,E,4,23,0.7,184.285,M,40.283,M,1.0,1673*49
$GPGGA,084815.00,5939.93740951,N,01029.20743198,E,4,23,0.7,184.289,M,40.283,M,1.0,1673*4A
$GPGGA,084816.00,5939.93741049,N,01029.20742836,E,4,24,0.7,184.269,M,40.283,M,1.0,1673*4D
$GPGGA,084817.00,5939.93740823,N,01029.20742654,E,4,23,0.7,184.261,M,40.283,M,1.0,1673*4C
$GPGGA,084818.00,5939.93740714,N,01029.20742246,E,4,23,0.7,184.298,M,40.283,M,1.0,1673*49
$GPGGA,084819.00,5939.93740892,N,01029.20742164,E,4,23,0.7,184.308,M,40.283,M,1.0,1673*42
$GPGGA,084820.00,5939.93741221,N,01029.20742204,E,4,23,0.7,184.336,M,40.283,M,1.0,1673*43
$GPGGA,084821.00,5939.93741026,N,01029.20742123,E,4,23,0.7,184.293,M,40.283,M,1.0,1673*4F
$GPGGA,084822.00,5939.93740731,N,01029.20742143,E,4,24,0.7,184.284,M,40.283,M,1.0,1673*4B
$GPGGA,084823.00,5939.93740722,N,01029.20742222,E,4,24,0.7,184.291,M,40.283,M,1.0,1673*48
$GPGGA,084824.00,5939.93740848,N,01029.20742202,E,4,24,0.7,184.284,M,40.283,M,1.0,1673*4A
$GPGGA,084825.00,5939.93740995,N,01029.20742045,E,4,24,0.7,184.284,M,40.283,M,1.0,1673*4B
$GPGGA,084826.00,5939.93740573,N,01029.20742711,E,4,25,0.6,184.286,M,40.283,M,1.0,1673*48
$GPGGA,084827.00,5939.93740647,N,01029.20742422,E,4,25,0.6,184.291,M,40.283,M,1.0,1673*48
$GPGGA,084828.00,5939.93740419,N,01029.20742917,E,4,25,0.6,184.290,M,40.283,M,1.0,1673*44
$GPGGA,084829.00,5939.93740687,N,01029.20742412,E,4,25,0.6,184.299,M,40.283,M,1.0,1673*41
$GPGGA,084830.00,5939.93740667,N,01029.20742511,E,4,24,0.6,184.291,M,40.283,M,1.0,1673*4C
$GPGGA,084831.00,5939.93740647,N,01029.20742275,E,4,24,0.6,184.299,M,40.283,M,1.0,1673*42
$GPGGA,084832.00,5939.93740413,N,01029.20742559,E,4,24,0.6,184.294,M,40.283,M,1.0,1673*46
$GPGGA,084833.00,5939.93740686,N,01029.20742743,E,4,23,0.6,184.309,M,40.283,M,1.0,1673*42
$GPGGA,084834.00,5939.93740732,N,01029.20741526,E,4,25,0.6,184.296,M,40.283,M,1.0,1673*48
$GPGGA,084835.00,5939.93740920,N,01029.20742391,E,4,24,0.6,184.306,M,40.283,M,1.0,1673*44
$GPGGA,084836.00,5939.93739875,N,01029.20743209,E,4,23,0.7,184.283,M,40.283,M,1.0,1673*43
$GPGGA,084837.00,5939.93739016,N,01029.20743555,E,4,24,0.7,184.254,M,40.283,M,1.0,1673*4C
$GPGGA,084838.00,5939.93740096,N,01029.20742835,E,4,25,0.6,184.268,M,40.283,M,1.0,1673*40
$GPGGA,084839.00,5939.93741024,N,01029.20741419,E,4,25,0.6,184.331,M,40.283,M,1.0,1673*45
$GPGGA,084840.00,5939.93740203,N,01029.20743201,E,4,25,0.6,184.351,M,40.283,M,1.0,1673*46
$GPGGA,084841.00,5939.93740254,N,01029.20743429,E,4,25,0.6,184.349,M,40.283,M,1.0,1673*40
$GPGGA,084842.00,5939.93740518,N,01029.20742273,E,4,25,0.6,184.335,M,40.283,M,1.0,1673*4F
$GPGGA,084843.00,5939.93740944,N,01029.20741792,E,4,24,0.7,184.337,M,40.283,M,1.0,1673*40
$GPGGA,084844.00,5939.93740800,N,01029.20742133,E,4,24,0.7,184.321,M,40.283,M,1.0,1673*4F
$GPGGA,084845.00,5939.93741229,N,01029.20741286,E,4,24,0.7,184.336,M,40.283,M,1.0,1673*46
$GPGGA,084846.00,5939.93740506,N,01029.20743390,E,4,24,0.7,184.344,M,40.283,M,1.0,1673*4F
$GPGGA,084847.00,5939.93741505,N,01029.20742148,E,4,23,0.7,184.345,M,40.283,M,1.0,1673*4C
$GPGGA,084848.00,5939.93741278,N,01029.20742657,E,4,23,0.7,184.325,M,40.283,M,1.0,1673*41
$GPGGA,084849.00,5939.93741153,N,01029.20742874,E,4,23,0.7,184.345,M,40.283,M,1.0,1673*43
$GPGGA,084850.00,5939.93741860,N,01029.20741978,E,4,21,0.7,184.348,M,40.283,M,1.0,1673*43
$GPGGA,084851.00,5939.93741853,N,01029.20742154,E,4,21,0.7,184.355,M,40.283,M,1.0,1673*4B
$GPGGA,084852.00,5939.93741793,N,01029.20742015,E,4,21,0.7,184.350,M,40.283,M,1.0,1673*4A
$GPGGA,084853.00,5939.93742152,N,01029.20741756,E,4,22,0.7,184.365,M,40.283,M,1.0,1673*45
$GPGGA,084854.00,5939.93742381,N,01029.20742126,E,4,21,0.7,184.406,M,40.283,M,1.0,1673*4D
$GPGGA,084855.00,5939.93742287,N,01029.20742151,E,4,21,0.7,184.409,M,40.283,M,1.0,1673*44
$GPGGA,084856.00,5939.93742350,N,01029.20742194,E,4,23,0.7,184.406,M,40.283,M,1.0,1673*48
$GPGGA,084857.00,5939.93742560,N,01029.20742132,E,4,23,0.7,184.401,M,40.283,M,1.0,1673*47
$GPGGA,084858.00,5939.93742647,N,01029.20742105,E,4,24,0.7,184.391,M,40.283,M,1.0,1673*43
$GPGGA,084859.00,5939.93742517,N,01029.20742033,E,4,23,0.7,184.399,M,40.283,M,1.0,1673*4F
$GPGGA,084900.00,5939.93742538,N,01029.20741994,E,4,24,0.7,184.397,M,40.283,M,1.0,1673*41
$GPGGA,084901.00,5939.93742596,N,01029.20742171,E,4,24,0.7,184.391,M,40.283,M,1.0,1673*42
$GPGGA,084902.00,5939.93742607,N,01029.20741727,E,4,23,0.7,184.391,M,40.283,M,1.0,1673*4B
$GPGGA,084903.00,5939.93742338,N,01029.20742103,E,4,23,0.7,184.382,M,40.283,M,1.0,1673*42
$GPGGA,084904.00,5939.93741902,N,01029.20742098,E,4,23,0.7,184.371,M,40.283,M,1.0,1673*4A
$GPGGA,084905.00,5939.93742330,N,01029.20742225,E,4,23,0.7,184.378,M,40.283,M,1.0,1673*4E
$GPGGA,084906.00,5939.93742179,N,01029.20742051,E,4,24,0.7,184.383,M,40.283,M,1.0,1673*40
$GPGGA,084907.00,5939.93741964,N,01029.20742129,E,4,24,0.7,184.358,M,40.283,M,1.0,1673*4E
$GPGGA,084908.00,5939.93742125,N,01029.20742026,E,4,25,0.7,184.367,M,40.283,M,1.0,1673*4C
$GPGGA,084909.00,5939.93741745,N,01029.20742042,E,4,25,0.7,184.362,M,40.283,M,1.0,1673*49
$GPGGA,084910.00,5939.93742085,N,01029.20742230,E,4,26,0.7,184.362,M,40.283,M,1.0,1673*4D
$GPGGA,084911.00,5939.93742079,N,01029.20742025,E,4,26,0.7,184.379,M,40.283,M,1.0,1673*43
$GPGGA,084912.00,5939.93741546,N,01029.20742848,E,4,24,0.7,184.355,M,40.283,M,1.0,1673*45
$GPGGA,084913.00,5939.93741820,N,01029.20741708,E,4,24,0.7,184.362,M,40.283,M,1.0,1673*45
$GPGGA,084914.00,5939.93741952,N,01029.20742158,E,4,25,0.7,184.369,M,40.283,M,1.0,1673*4C
$GPGGA,084915.00,5939.93741762,N,01029.20742710,E,4,25,0.7,184.348,M,40.283,M,1.0,1673*49
$GPGGA,084916.00,5939.93741810,N,01029.20742194,E,4,24,0.7,184.357,M,40.283,M,1.0,1673*45
$GPGGA,084917.00,5939.93741383,N,01029.20742773,E,4,24,0.7,184.343,M,40.283,M,1.0,1673*4F
$GPGGA,084918.00,5939.93741177,N,01029.20742778,E,4,23,0.7,184.354,M,40.283,M,1.0,1673*43
$GPGGA,084919.00,5939.93741919,N,01029.20742145,E,4,23,0.7,184.340,M,40.283,M,1.0,1673*4F
$GPGGA,084920.00,5939.93741304,N,01029.20742240,E,4,23,0.7,184.314,M,40.283,M,1.0,1673*44
$GPGGA,084921.00,5939.93741125,N,01029.20742743,E,4,22,0.7,184.316,M,40.283,M,1.0,1673*41
$GPGGA,084922.00,5939.93741996,N,01029.20743037,E,4,24,0.6,184.366,M,40.283,M,1.0,1673*47
$GPGGA,084923.00,5939.93742109,N,01029.20742477,E,4,22,0.6,184.387,M,40.283,M,1.0,1673*43
$GPGGA,084924.00,5939.93741726,N,01029.20742767,E,4,22,0.6,184.360,M,40.283,M,1.0,1673*47
$GPGGA,084925.00,5939.93741898,N,01029.20742860,E,4,22,0.6,184.353,M,40.283,M,1.0,1673*44
$GPGGA,084926.00,5939.93741802,N,01029.20742771,E,4,22,0.6,184.345,M,40.283,M,1.0,1673*4C
$GPGGA,084927.00,5939.93741321,N,01029.20743015,E,4,21,0.6,184.329,M,40.283,M,2.0,1673*49
$GPGGA,084928.00,5939.93741121,N,01029.20742053,E,4,21,0.6,184.365,M,40.283,M,1.0,1673*4C
$GPGGA,084929.00,5939.93740893,N,01029.20741798,E,4,21,0.6,184.366,M,40.283,M,1.0,1673*4C
$GPGGA,084930.00,5939.93741047,N,01029.20741849,E,4,21,0.6,184.358,M,40.283,M,1.0,1673*4A
$GPGGA,084931.00,5939.93740850,N,01029.20742103,E,4,22,0.6,184.360,M,40.283,M,1.0,1673*48
$GPGGA,084932.00,5939.93741070,N,01029.20741855,E,4,23,0.6,184.361,M,40.283,M,1.0,1673*49
$GPGGA,084933.00,5939.93741798,N,01029.20741299,E,4,23,0.6,184.400,M,40.283,M,1.0,1673*43
$GPGGA,084934.00,5939.93741045,N,01029.20742225,E,4,23,0.6,184.368,M,40.283,M,1.0,1673*4E
$GPGGA,084935.00,5939.93741144,N,01029.20741734,E,4,23,0.6,184.368,M,40.283,M,1.0,1673*49
$GPGGA,084936.00,5939.93740730,N,01029.20742221,E,4,23,0.6,184.358,M,40.283,M,1.0,1673*4F
$GPGGA,084937.00,5939.93741221,N,01029.20741568,E,4,23,0.6,184.363,M,40.283,M,1.0,1673*4B
$GPGGA,084938.00,5939.93740874,N,01029.20742085,E,4,23,0.6,184.358,M,40.283,M,1.0,1673*42
$GPGGA,084939.00,5939.93740928,N,01029.20741782,E,4,23,0.6,184.357,M,40.283,M,1.0,1673*47
$GPGGA,084940.00,5939.93740970,N,01029.20741799,E,4,24,0.6,184.355,M,40.283,M,1.0,1673*4B
$GPGGA,084941.00,5939.93741077,N,01029.20742162,E,4,23,0.6,184.350,M,40.283,M,1.0,1673*46
$GPGGA,084942.00,5939.93741004,N,01029.20741960,E,4,24,0.6,184.348,M,40.283,M,1.0,1673*46
$GPGGA,084943.00,5939.93741301,N,01029.20741933,E,4,23,0.6,184.355,M,40.283,M,1.0,1673*4C
$GPGGA,084944.00,5939.93740771,N,01029.20742178,E,4,23,0.6,184.352,M,40.283,M,1.0,1673*4A
$GPGGA,084945.00,5939.93741195,N,01029.20741911,E,4,22,0.6,184.360,M,40.283,M,1.0,1673*42
$GPGGA,084946.00,5939.93741081,N,01029.20741799,E,4,23,0.7,184.351,M,40.283,M,1.0,1673*49
$GPGGA,084947.00,5939.93741167,N,01029.20741820,E,4,23,0.7,184.363,M,40.283,M,1.0,1673*4D
$GPGGA,084948.00,5939.93741170,N,01029.20741769,E,4,22,0.6,184.347,M,40.283,M,1.0,1673*40
$GPGGA,084949.00,5939.93741190,N,01029.20741685,E,4,22,0.6,184.351,M,40.283,M,1.0,1673*4B
$GPGGA,084950.00,5939.93741110,N,01029.20741993,E,4,23,0.6,184.354,M,40.283,M,1.0,1673*47
$GPGGA,084951.00,5939.93741090,N,01029.20742000,E,4,23,0.6,184.357,M,40.283,M,1.0,1673*4C
$GPGGA,084952.00,5939.93741757,N,01029.20742173,E,4,24,0.6,184.377,M,40.283,M,1.0,1673*43
$GPGGA,084953.00,5939.93741953,N,01029.20742439,E,4,23,0.6,184.366,M,40.283,M,1.0,1673*44
$GPGGA,084954.00,5939.93741659,N,01029.20743138,E,4,24,0.6,184.348,M,40.283,M,1.0,1673*48
$GPGGA,084955.00,5939.93741624,N,01029.20742064,E,4,24,0.7,184.347,M,40.283,M,1.0,1673*44
$GPGGA,084956.00,5939.93741111,N,01029.20742328,E,4,23,0.7,184.346,M,40.283,M,1.0,1673*4B
$GPGGA,084957.00,5939.93741719,N,01029.20742703,E,4,24,0.7,184.358,M,40.283,M,1.0,1673*41
$GPGGA,084958.00,5939.93741757,N,01029.20742787,E,4,24,0.7,184.350,M,40.283,M,1.0,1673*40
$GPGGA,084959.00,5939.93741488,N,01029.20742269,E,4,24,0.7,184.358,M,40.283,M,1.0,1673*4D
$GPGGA,085000.00,5939.93741071,N,01029.20742544,E,4,23,0.7,184.362,M,40.283,M,1.0,1673*4D
$GPGGA,085001.00,5939.93741142,N,01029.20742074,E,4,23,0.7,184.358,M,40.283,M,1.0,1673*42
$GPGGA,085002.00,5939.93741501,N,01029.20742086,E,4,24,0.7,184.356,M,40.283,M,1.0,1673*46
$GPGGA,085003.00,5939.93740931,N,01029.20741715,E,4,24,0.6,184.357,M,40.283,M,1.0,1673*47
$GPGGA,085004.00,5939.93741190,N,01029.20742156,E,4,23,0.7,184.373,M,40.283,M,1.0,1673*40
$GPGGA,085005.00,5939.93741512,N,01029.20742502,E,4,22,0.7,184.367,M,40.283,M,1.0,1673*4E
$GPGGA,085006.00,5939.93741215,N,01029.20742627,E,4,23,0.7,184.368,M,40.283,M,1.0,1673*47
$GPGGA,085007.00,5939.93741161,N,01029.20742301,E,4,23,0.7,184.362,M,40.283,M,1.0,1673*4D
$GPGGA,085008.00,5939.93741106,N,01029.20742079,E,4,23,0.7,184.367,M,40.283,M,1.0,1673*4A
$GPGGA,085009.00,5939.93741209,N,01029.20742311,E,4,22,0.7,184.355,M,40.283,M,1.0,1673*4A
$GPGGA,085010.00,5939.93741169,N,01029.20742243,E,4,24,0.7,184.371,M,40.283,M,1.0,1673*41
$GPGGA,085011.00,5939.93741502,N,01029.20742810,E,4,24,0.7,184.396,M,40.283,M,2.0,1673*4F
$GPGGA,085012.00,5939.93742495,N,01029.20743934,E,4,22,0.7,184.337,M,40.283,M,1.0,1673*48
$GPGGA,085013.00,5939.93742309,N,01029.20743564,E,4,23,0.7,184.329,M,40.283,M,1.0,1673*4C
$GPGGA,085014.00,5939.93741722,N,01029.20744709,E,4,23,0.7,184.363,M,40.283,M,1.0,1673*45
$GPGGA,085015.00,5939.93741944,N,01029.20744150,E,4,23,0.7,184.356,M,40.283,M,2.0,1673*45
$GPGGA,085016.00,5939.93742138,N,01029.20744436,E,4,23,0.7,184.329,M,40.283,M,1.0,1673*48
$GPGGA,085017.00,5939.93740898,N,01029.20743042,E,4,22,0.7,184.391,M,40.283,M,1.0,1673*4A
$GPGGA,085018.00,5939.93742131,N,01029.20742807,E,4,22,0.7,184.388,M,40.283,M,1.0,1673*4D
$GPGGA,085019.00,5939.93741936,N,01029.20743036,E,4,22,0.7,184.346,M,40.283,M,1.0,1673*49
$GPGGA,085020.00,5939.93741452,N,01029.20742547,E,4,23,0.7,184.375,M,40.283,M,1.0,1673*4F
$GPGGA,085021.00,5939.93741658,N,01029.20742997,E,4,24,0.7,184.379,M,40.283,M,1.0,1673*4C
$GPGGA,085022.00,5939.93742130,N,01029.20742777,E,4,25,0.7,184.351,M,40.283,M,1.0,1673*4E
$GPGGA,085023.00,5939.93742134,N,01029.20743067,E,4,25,0.7,184.338,M,40.283,M,1.0,1673*43
$GPGGA,085024.00,5939.93742036,N,01029.20742929,E,4,25,0.7,184.338,M,40.283,M,1.0,1673*45
$GPGGA,085025.00,5939.93741921,N,01029.20743083,E,4,24,0.7,184.343,M,40.283,M,2.0,1673*4E
$GPGGA,085026.00,5939.93742041,N,01029.20742845,E,4,24,0.7,184.333,M,40.283,M,1.0,1673*46
$GPGGA,085027.00,5939.93742058,N,01029.20742842,E,4,24,0.7,184.342,M,40.283,M,1.0,1673*4E
$GPGGA,085028.00,5939.93742076,N,01029.20743150,E,4,26,0.7,184.331,M,40.283,M,1.0,1673*40
$GPGGA,085029.00,5939.93742190,N,01029.20742716,E,4,27,0.7,184.328,M,40.283,M,1.0,1673*44
$GPGGA,085030.00,5939.93742268,N,01029.20742948,E,4,27,0.7,184.359,M,40.283,M,1.0,1673*4B
$GPGGA,085031.00,5939.93742225,N,01029.20742572,E,4,27,0.7,184.353,M,40.283,M,1.0,1673*4C
$GPGGA,085032.00,5939.93742293,N,01029.20743143,E,4,27,0.7,184.353,M,40.283,M,1.0,1673*45
$GPGGA,085033.00,5939.93742284,N,01029.20743207,E,4,27,0.7,184.348,M,40.283,M,1.0,1673*4B
$GPGGA,085034.00,5939.93742351,N,01029.20743116,E,4,26,0.7,184.347,M,40.283,M,2.0,1673*4B
$GPGGA,085035.00,5939.93741983,N,01029.20743435,E,4,26,0.7,184.317,M,40.283,M,1.0,1673*4E
$GPGGA,085036.00,5939.93742168,N,01029.20743147,E,4,26,0.7,184.322,M,40.283,M,1.0,1673*45
$GPGGA,085037.00,5939.93742050,N,01029.20743248,E,4,26,0.7,184.327,M,40.283,M,1.0,1673*47
$GPGGA,085038.00,5939.93742439,N,01029.20742886,E,4,26,0.6,184.335,M,40.283,M,1.0,1673*48
$GPGGA,085039.00,5939.93742149,N,01029.20743367,E,4,27,0.6,184.332,M,40.283,M,1.0,1673*48
$GPGGA,085040.00,5939.93742225,N,01029.20742999,E,4,27,0.6,184.334,M,40.283,M,1.0,1673*43
$GPGGA,085041.00,5939.93742036,N,01029.20743734,E,4,27,0.7,184.327,M,40.283,M,1.0,1673*49
$GPGGA,085042.00,5939.93742142,N,01029.20743392,E,4,27,0.7,184.350,M,40.283,M,1.0,1673*40
$GPGGA,085043.00,5939.93741935,N,01029.20743702,E,4,27,0.7,184.341,M,40.283,M,1.0,1673*47
$GPGGA,085044.00,5939.93742220,N,01029.20743531,E,4,27,0.7,184.336,M,40.283,M,1.0,1673*4E
$GPGGA,085045.00,5939.93742079,N,01029.20743282,E,4,27,0.7,184.318,M,40.283,M,1.0,1673*42
$GPGGA,085046.00,5939.93742831,N,01029.20743288,E,4,27,0.7,184.319,M,40.283,M,1.0,1673*4E
$GPGGA,085047.00,5939.93742211,N,01029.20743332,E,4,27,0.7,184.317,M,40.283,M,1.0,1673*49
$GPGGA,085048.00,5939.93742750,N,01029.20743117,E,4,27,0.7,184.315,M,40.283,M,1.0,1673*41
$GPGGA,085049.00,5939.93742289,N,01029.20743527,E,4,27,0.7,184.336,M,40.283,M,1.0,1673*47
$GPGGA,085050.00,5939.93742472,N,01029.20743167,E,4,27,0.7,184.326,M,40.283,M,1.0,1673*4C
$GPGGA,085051.00,5939.93742437,N,01029.20743299,E,4,28,0.7,184.336,M,40.283,M,1.0,1673*40
$GPGGA,085052.00,5939.93742234,N,01029.20743318,E,4,28,0.7,184.329,M,40.283,M,1.0,1673*40
$GPGGA,085053.00,5939.93742432,N,01029.20743088,E,4,28,0.7,184.329,M,40.283,M,1.0,1673*4B
$GPGGA,085054.00,5939.93742318,N,01029.20743299,E,4,28,0.7,184.325,M,40.283,M,1.0,1673*4D
$GPGGA,085055.00,5939.93742100,N,01029.20743507,E,4,27,0.7,184.331,M,40.283,M,1.0,1673*4D
$GPGGA,085056.00,5939.93742260,N,01029.20743451,E,4,27,0.7,184.328,M,40.283,M,1.0,1673*41
$GPGGA,085057.00,5939.93742224,N,01029.20743448,E,4,27,0.7,184.334,M,40.283,M,1.0,1673*45
$GPGGA,085058.00,5939.93742083,N,01029.20743496,E,4,27,0.7,184.323,M,40.283,M,1.0,1673*40
$GPGGA,085059.00,5939.93742255,N,01029.20743494,E,4,27,0.7,184.336,M,40.283,M,1.0,1673*4E
$GPGGA,085100.00,5939.93742291,N,01029.20743910,E,4,26,0.7,184.259,M,40.283,M,1.0,1673*43
$GPGGA,085101.00,5939.93742694,N,01029.20743140,E,4,25,0.7,184.336,M,40.283,M,1.0,1673*45
$GPGGA,085102.00,5939.93742520,N,01029.20743034,E,4,25,0.7,184.340,M,40.283,M,1.0,1673*49
$GPGGA,085103.00,5939.93742521,N,01029.20743206,E,4,25,0.7,184.342,M,40.283,M,1.0,1673*48
$GPGGA,085104.00,5939.93742602,N,01029.20743004,E,4,25,0.7,184.333,M,40.283,M,1.0,1673*4B
$GPGGA,085105.00,5939.93742899,N,01029.20743312,E,4,24,0.7,184.339,M,40.283,M,1.0,1673*49
$GPGGA,085106.00,5939.93742559,N,01029.20743241,E,4,25,0.7,184.332,M,40.283,M,1.0,1673*46
$GPGGA,085107.00,5939.93742668,N,01029.20742908,E,4,24,0.7,184.338,M,40.283,M,1.0,1673*4A
$GPGGA,085108.00,5939.93742849,N,01029.20743196,E,4,24,0.7,184.343,M,40.283,M,1.0,1673*4A
